{
    "type": "FeatureCollection",
    "features": [
        {
            "type": "Feature",
            "properties": {
                "名称": "山坡乡丰收村卫生院",
                "大类": "医疗保健",
                "中类": "综合医院",
                "省份": "湖北省",
                "城市": "武汉市",
                "区域": "江夏区"
            },
            "geometry": {
                "type": "Point",
                "coordinates": [
                    114.310992,
                    30.072484
                ]
            }
        },
        {
            "type": "Feature",
            "properties": {
                "名称": "武汉东湖新技术开发区滨湖街社区卫生中心",
                "大类": "医疗保健",
                "中类": "综合医院",
                "省份": "湖北省",
                "城市": "武汉市",
                "区域": "江夏区"
            },
            "geometry": {
                "type": "Point",
                "coordinates": [
                    114.466716,
                    30.30231
                ]
            }
        },
        {
            "type": "Feature",
            "properties": {
                "名称": "北京渔美康水产医院",
                "大类": "医疗保健",
                "中类": "综合医院",
                "省份": "湖北省",
                "城市": "武汉市",
                "区域": "新洲区"
            },
            "geometry": {
                "type": "Point",
                "coordinates": [
                    114.750519,
                    30.673881
                ]
            }
        },
        {
            "type": "Feature",
            "properties": {
                "名称": "涨渡湖街卫生室",
                "大类": "医疗保健",
                "中类": "综合医院",
                "省份": "湖北省",
                "城市": "武汉市",
                "区域": "新洲区"
            },
            "geometry": {
                "type": "Point",
                "coordinates": [
                    114.800767,
                    30.668887
                ]
            }
        },
        {
            "type": "Feature",
            "properties": {
                "名称": "东荆街社区卫生中心",
                "大类": "医疗保健",
                "中类": "综合医院",
                "省份": "湖北省",
                "城市": "武汉市",
                "区域": "汉南区"
            },
            "geometry": {
                "type": "Point",
                "coordinates": [
                    113.918501,
                    30.341051
                ]
            }
        },
        {
            "type": "Feature",
            "properties": {
                "名称": "东荆街卫生室",
                "大类": "医疗保健",
                "中类": "综合医院",
                "省份": "湖北省",
                "城市": "武汉市",
                "区域": "汉南区"
            },
            "geometry": {
                "type": "Point",
                "coordinates": [
                    113.919289,
                    30.341136
                ]
            }
        },
        {
            "type": "Feature",
            "properties": {
                "名称": "东荆街沟北社区卫生运营服务站",
                "大类": "医疗保健",
                "中类": "综合医院",
                "省份": "湖北省",
                "城市": "武汉市",
                "区域": "汉南区"
            },
            "geometry": {
                "type": "Point",
                "coordinates": [
                    113.928963,
                    30.310262
                ]
            }
        },
        {
            "type": "Feature",
            "properties": {
                "名称": "消泗乡卫生室",
                "大类": "医疗保健",
                "中类": "综合医院",
                "省份": "湖北省",
                "城市": "武汉市",
                "区域": "蔡甸区"
            },
            "geometry": {
                "type": "Point",
                "coordinates": [
                    113.780301,
                    30.315879
                ]
            }
        },
        {
            "type": "Feature",
            "properties": {
                "名称": "成功卫生室",
                "大类": "医疗保健",
                "中类": "综合医院",
                "省份": "湖北省",
                "城市": "武汉市",
                "区域": "蔡甸区"
            },
            "geometry": {
                "type": "Point",
                "coordinates": [
                    113.716147,
                    30.401861
                ]
            }
        },
        {
            "type": "Feature",
            "properties": {
                "名称": "洪北卫生室",
                "大类": "医疗保健",
                "中类": "综合医院",
                "省份": "湖北省",
                "城市": "武汉市",
                "区域": "蔡甸区"
            },
            "geometry": {
                "type": "Point",
                "coordinates": [
                    113.856777,
                    30.392992
                ]
            }
        },
        {
            "type": "Feature",
            "properties": {
                "名称": "桐湖卫生室",
                "大类": "医疗保健",
                "中类": "综合医院",
                "省份": "湖北省",
                "城市": "武汉市",
                "区域": "蔡甸区"
            },
            "geometry": {
                "type": "Point",
                "coordinates": [
                    113.94829,
                    30.369461
                ]
            }
        },
        {
            "type": "Feature",
            "properties": {
                "名称": "湖泗卫生室",
                "大类": "医疗保健",
                "中类": "综合医院",
                "省份": "湖北省",
                "城市": "武汉市",
                "区域": "江夏区"
            },
            "geometry": {
                "type": "Point",
                "coordinates": [
                    114.47289,
                    30.015397
                ]
            }
        },
        {
            "type": "Feature",
            "properties": {
                "名称": "山坡中心卫生室贺站分院",
                "大类": "医疗保健",
                "中类": "综合医院",
                "省份": "湖北省",
                "城市": "武汉市",
                "区域": "江夏区"
            },
            "geometry": {
                "type": "Point",
                "coordinates": [
                    114.362167,
                    30.036807
                ]
            }
        },
        {
            "type": "Feature",
            "properties": {
                "名称": "安山卫生室",
                "大类": "医疗保健",
                "中类": "综合医院",
                "省份": "湖北省",
                "城市": "武汉市",
                "区域": "江夏区"
            },
            "geometry": {
                "type": "Point",
                "coordinates": [
                    114.290029,
                    30.153964
                ]
            }
        },
        {
            "type": "Feature",
            "properties": {
                "名称": "江夏中心卫生室保福分院",
                "大类": "医疗保健",
                "中类": "综合医院",
                "省份": "湖北省",
                "城市": "武汉市",
                "区域": "江夏区"
            },
            "geometry": {
                "type": "Point",
                "coordinates": [
                    114.418685,
                    30.103767
                ]
            }
        },
        {
            "type": "Feature",
            "properties": {
                "名称": "保福卫生室",
                "大类": "医疗保健",
                "中类": "综合医院",
                "省份": "湖北省",
                "城市": "武汉市",
                "区域": "江夏区"
            },
            "geometry": {
                "type": "Point",
                "coordinates": [
                    114.418198,
                    30.10322
                ]
            }
        },
        {
            "type": "Feature",
            "properties": {
                "名称": "舒安乡卫生室",
                "大类": "医疗保健",
                "中类": "综合医院",
                "省份": "湖北省",
                "城市": "武汉市",
                "区域": "江夏区"
            },
            "geometry": {
                "type": "Point",
                "coordinates": [
                    114.5085,
                    30.113401
                ]
            }
        },
        {
            "type": "Feature",
            "properties": {
                "名称": "舒安街卫生室",
                "大类": "医疗保健",
                "中类": "综合医院",
                "省份": "湖北省",
                "城市": "武汉市",
                "区域": "江夏区"
            },
            "geometry": {
                "type": "Point",
                "coordinates": [
                    114.508429,
                    30.114024
                ]
            }
        },
        {
            "type": "Feature",
            "properties": {
                "名称": "郑店卫生室段岭庙分院",
                "大类": "医疗保健",
                "中类": "综合医院",
                "省份": "湖北省",
                "城市": "武汉市",
                "区域": "江夏区"
            },
            "geometry": {
                "type": "Point",
                "coordinates": [
                    114.280536,
                    30.264204
                ]
            }
        },
        {
            "type": "Feature",
            "properties": {
                "名称": "武钢乌龙泉矿医院",
                "大类": "医疗保健",
                "中类": "综合医院",
                "省份": "湖北省",
                "城市": "武汉市",
                "区域": "江夏区"
            },
            "geometry": {
                "type": "Point",
                "coordinates": [
                    114.317355,
                    30.263754
                ]
            }
        },
        {
            "type": "Feature",
            "properties": {
                "名称": "乌龙泉街卫生室",
                "大类": "医疗保健",
                "中类": "综合医院",
                "省份": "湖北省",
                "城市": "武汉市",
                "区域": "江夏区"
            },
            "geometry": {
                "type": "Point",
                "coordinates": [
                    114.333298,
                    30.259185
                ]
            }
        },
        {
            "type": "Feature",
            "properties": {
                "名称": "乌龙泉卫生院公共卫生服务站",
                "大类": "医疗保健",
                "中类": "综合医院",
                "省份": "湖北省",
                "城市": "武汉市",
                "区域": "江夏区"
            },
            "geometry": {
                "type": "Point",
                "coordinates": [
                    114.332992,
                    30.259395
                ]
            }
        },
        {
            "type": "Feature",
            "properties": {
                "名称": "乌龙泉街乌龙泉矿社区卫生运营服务站",
                "大类": "医疗保健",
                "中类": "综合医院",
                "省份": "湖北省",
                "城市": "武汉市",
                "区域": "江夏区"
            },
            "geometry": {
                "type": "Point",
                "coordinates": [
                    114.320436,
                    30.264426
                ]
            }
        },
        {
            "type": "Feature",
            "properties": {
                "名称": "大埠镇卫生室",
                "大类": "医疗保健",
                "中类": "综合医院",
                "省份": "湖北省",
                "城市": "武汉市",
                "区域": "新洲区"
            },
            "geometry": {
                "type": "Point",
                "coordinates": [
                    114.742565,
                    30.611117
                ]
            }
        },
        {
            "type": "Feature",
            "properties": {
                "名称": "青菱街老桥社区卫生运营服务站",
                "大类": "医疗保健",
                "中类": "综合医院",
                "省份": "湖北省",
                "城市": "武汉市",
                "区域": "洪山区"
            },
            "geometry": {
                "type": "Point",
                "coordinates": [
                    114.223357,
                    30.412407
                ]
            }
        },
        {
            "type": "Feature",
            "properties": {
                "名称": "龙泉街社区卫生中心",
                "大类": "医疗保健",
                "中类": "综合医院",
                "省份": "湖北省",
                "城市": "武汉市",
                "区域": "江夏区"
            },
            "geometry": {
                "type": "Point",
                "coordinates": [
                    114.536599,
                    30.388167
                ]
            }
        },
        {
            "type": "Feature",
            "properties": {
                "名称": "双柳街卫生室",
                "大类": "医疗保健",
                "中类": "综合医院",
                "省份": "湖北省",
                "城市": "武汉市",
                "区域": "新洲区"
            },
            "geometry": {
                "type": "Point",
                "coordinates": [
                    114.647722,
                    30.585522
                ]
            }
        },
        {
            "type": "Feature",
            "properties": {
                "名称": "六指卫生室",
                "大类": "医疗保健",
                "中类": "综合医院",
                "省份": "湖北省",
                "城市": "武汉市",
                "区域": "黄陂区"
            },
            "geometry": {
                "type": "Point",
                "coordinates": [
                    114.497094,
                    30.885271
                ]
            }
        },
        {
            "type": "Feature",
            "properties": {
                "名称": "六指街中心卫生室",
                "大类": "医疗保健",
                "中类": "综合医院",
                "省份": "湖北省",
                "城市": "武汉市",
                "区域": "黄陂区"
            },
            "geometry": {
                "type": "Point",
                "coordinates": [
                    114.497322,
                    30.884868
                ]
            }
        },
        {
            "type": "Feature",
            "properties": {
                "名称": "六指街中心卫生室发热门诊",
                "大类": "医疗保健",
                "中类": "综合医院",
                "省份": "湖北省",
                "城市": "武汉市",
                "区域": "黄陂区"
            },
            "geometry": {
                "type": "Point",
                "coordinates": [
                    114.498235,
                    30.884105
                ]
            }
        },
        {
            "type": "Feature",
            "properties": {
                "名称": "六指街社区卫生中心",
                "大类": "医疗保健",
                "中类": "综合医院",
                "省份": "湖北省",
                "城市": "武汉市",
                "区域": "黄陂区"
            },
            "geometry": {
                "type": "Point",
                "coordinates": [
                    114.497466,
                    30.884815
                ]
            }
        },
        {
            "type": "Feature",
            "properties": {
                "名称": "大潭原种厂伍家港村卫生室",
                "大类": "医疗保健",
                "中类": "综合医院",
                "省份": "湖北省",
                "城市": "武汉市",
                "区域": "黄陂区"
            },
            "geometry": {
                "type": "Point",
                "coordinates": [
                    114.392395,
                    30.814020000000003
                ]
            }
        },
        {
            "type": "Feature",
            "properties": {
                "名称": "c",
                "大类": "医疗保健",
                "中类": "综合医院",
                "省份": "湖北省",
                "城市": "武汉市",
                "区域": "黄陂区"
            },
            "geometry": {
                "type": "Point",
                "coordinates": [
                    114.35654,
                    30.850588
                ]
            }
        },
        {
            "type": "Feature",
            "properties": {
                "名称": "黄陂新人民医院",
                "大类": "医疗保健",
                "中类": "综合医院",
                "省份": "湖北省",
                "城市": "武汉市",
                "区域": "黄陂区"
            },
            "geometry": {
                "type": "Point",
                "coordinates": [
                    114.357923,
                    30.851224
                ]
            }
        },
        {
            "type": "Feature",
            "properties": {
                "名称": "旧街街社区卫生中心",
                "大类": "医疗保健",
                "中类": "综合医院",
                "省份": "湖北省",
                "城市": "武汉市",
                "区域": "新洲区"
            },
            "geometry": {
                "type": "Point",
                "coordinates": [
                    114.926408,
                    30.832487
                ]
            }
        },
        {
            "type": "Feature",
            "properties": {
                "名称": "旧街中心卫生室核酸采样点",
                "大类": "医疗保健",
                "中类": "综合医院",
                "省份": "湖北省",
                "城市": "武汉市",
                "区域": "新洲区"
            },
            "geometry": {
                "type": "Point",
                "coordinates": [
                    114.926782,
                    30.832128
                ]
            }
        },
        {
            "type": "Feature",
            "properties": {
                "名称": "旧街中心卫生室",
                "大类": "医疗保健",
                "中类": "综合医院",
                "省份": "湖北省",
                "城市": "武汉市",
                "区域": "新洲区"
            },
            "geometry": {
                "type": "Point",
                "coordinates": [
                    114.926481,
                    30.831709
                ]
            }
        },
        {
            "type": "Feature",
            "properties": {
                "名称": "道观河风景旅游区卫生室",
                "大类": "医疗保健",
                "中类": "综合医院",
                "省份": "湖北省",
                "城市": "武汉市",
                "区域": "新洲区"
            },
            "geometry": {
                "type": "Point",
                "coordinates": [
                    114.987516,
                    30.87655
                ]
            }
        },
        {
            "type": "Feature",
            "properties": {
                "名称": "辛冲街卫生室门诊部",
                "大类": "医疗保健",
                "中类": "综合医院",
                "省份": "湖北省",
                "城市": "武汉市",
                "区域": "新洲区"
            },
            "geometry": {
                "type": "Point",
                "coordinates": [
                    114.818912,
                    30.773139
                ]
            }
        },
        {
            "type": "Feature",
            "properties": {
                "名称": "辛冲卫生室免疫接种门诊",
                "大类": "医疗保健",
                "中类": "综合医院",
                "省份": "湖北省",
                "城市": "武汉市",
                "区域": "新洲区"
            },
            "geometry": {
                "type": "Point",
                "coordinates": [
                    114.818522,
                    30.772805
                ]
            }
        },
        {
            "type": "Feature",
            "properties": {
                "名称": "辛冲街卫生室",
                "大类": "医疗保健",
                "中类": "综合医院",
                "省份": "湖北省",
                "城市": "武汉市",
                "区域": "新洲区"
            },
            "geometry": {
                "type": "Point",
                "coordinates": [
                    114.818193,
                    30.773222
                ]
            }
        },
        {
            "type": "Feature",
            "properties": {
                "名称": "三店街卫生室和平分院",
                "大类": "医疗保健",
                "中类": "综合医院",
                "省份": "湖北省",
                "城市": "武汉市",
                "区域": "新洲区"
            },
            "geometry": {
                "type": "Point",
                "coordinates": [
                    114.862725,
                    30.918648
                ]
            }
        },
        {
            "type": "Feature",
            "properties": {
                "名称": "和平乡卫生室",
                "大类": "医疗保健",
                "中类": "综合医院",
                "省份": "湖北省",
                "城市": "武汉市",
                "区域": "新洲区"
            },
            "geometry": {
                "type": "Point",
                "coordinates": [
                    114.863005,
                    30.918798
                ]
            }
        },
        {
            "type": "Feature",
            "properties": {
                "名称": "旧街中心卫生室新集分院",
                "大类": "医疗保健",
                "中类": "综合医院",
                "省份": "湖北省",
                "城市": "武汉市",
                "区域": "新洲区"
            },
            "geometry": {
                "type": "Point",
                "coordinates": [
                    114.95174,
                    30.895581
                ]
            }
        },
        {
            "type": "Feature",
            "properties": {
                "名称": "旧街街新集社区卫生运营服务站",
                "大类": "医疗保健",
                "中类": "综合医院",
                "省份": "湖北省",
                "城市": "武汉市",
                "区域": "新洲区"
            },
            "geometry": {
                "type": "Point",
                "coordinates": [
                    114.95191,
                    30.896179
                ]
            }
        },
        {
            "type": "Feature",
            "properties": {
                "名称": "新集镇卫生室",
                "大类": "医疗保健",
                "中类": "综合医院",
                "省份": "湖北省",
                "城市": "武汉市",
                "区域": "新洲区"
            },
            "geometry": {
                "type": "Point",
                "coordinates": [
                    114.951307,
                    30.895581
                ]
            }
        },
        {
            "type": "Feature",
            "properties": {
                "名称": "徐古中心卫生室住院部",
                "大类": "医疗保健",
                "中类": "综合医院",
                "省份": "湖北省",
                "城市": "武汉市",
                "区域": "新洲区"
            },
            "geometry": {
                "type": "Point",
                "coordinates": [
                    114.977943,
                    30.945413
                ]
            }
        },
        {
            "type": "Feature",
            "properties": {
                "名称": "徐古中心卫生室妇保儿保中心",
                "大类": "医疗保健",
                "中类": "综合医院",
                "省份": "湖北省",
                "城市": "武汉市",
                "区域": "新洲区"
            },
            "geometry": {
                "type": "Point",
                "coordinates": [
                    114.977741,
                    30.945319
                ]
            }
        },
        {
            "type": "Feature",
            "properties": {
                "名称": "徐古中心卫生室",
                "大类": "医疗保健",
                "中类": "综合医院",
                "省份": "湖北省",
                "城市": "武汉市",
                "区域": "新洲区"
            },
            "geometry": {
                "type": "Point",
                "coordinates": [
                    114.978071,
                    30.945543
                ]
            }
        },
        {
            "type": "Feature",
            "properties": {
                "名称": "土庙医院",
                "大类": "医疗保健",
                "中类": "综合医院",
                "省份": "湖北省",
                "城市": "武汉市",
                "区域": "黄陂区"
            },
            "geometry": {
                "type": "Point",
                "coordinates": [
                    114.235433,
                    30.933805
                ]
            }
        },
        {
            "type": "Feature",
            "properties": {
                "名称": "三合店村卫生所",
                "大类": "医疗保健",
                "中类": "综合医院",
                "省份": "湖北省",
                "城市": "武汉市",
                "区域": "黄陂区"
            },
            "geometry": {
                "type": "Point",
                "coordinates": [
                    114.388844,
                    30.990638
                ]
            }
        },
        {
            "type": "Feature",
            "properties": {
                "名称": "罗汉街卫生室研子分院",
                "大类": "医疗保健",
                "中类": "综合医院",
                "省份": "湖北省",
                "城市": "武汉市",
                "区域": "黄陂区"
            },
            "geometry": {
                "type": "Point",
                "coordinates": [
                    114.341765,
                    31.015623
                ]
            }
        },
        {
            "type": "Feature",
            "properties": {
                "名称": "李集街中心卫生室方安分院",
                "大类": "医疗保健",
                "中类": "综合医院",
                "省份": "湖北省",
                "城市": "武汉市",
                "区域": "黄陂区"
            },
            "geometry": {
                "type": "Point",
                "coordinates": [
                    114.207707,
                    30.9758
                ]
            }
        },
        {
            "type": "Feature",
            "properties": {
                "名称": "达义村卫生院",
                "大类": "医疗保健",
                "中类": "综合医院",
                "省份": "湖北省",
                "城市": "武汉市",
                "区域": "黄陂区"
            },
            "geometry": {
                "type": "Point",
                "coordinates": [
                    114.240465,
                    30.952721
                ]
            }
        },
        {
            "type": "Feature",
            "properties": {
                "名称": "团山卫生所",
                "大类": "医疗保健",
                "中类": "综合医院",
                "省份": "湖北省",
                "城市": "武汉市",
                "区域": "黄陂区"
            },
            "geometry": {
                "type": "Point",
                "coordinates": [
                    114.501065,
                    30.911258
                ]
            }
        },
        {
            "type": "Feature",
            "properties": {
                "名称": "王家河镇卫生室长堰分院",
                "大类": "医疗保健",
                "中类": "综合医院",
                "省份": "湖北省",
                "城市": "武汉市",
                "区域": "黄陂区"
            },
            "geometry": {
                "type": "Point",
                "coordinates": [
                    114.45214,
                    31.007379
                ]
            }
        },
        {
            "type": "Feature",
            "properties": {
                "名称": "王家河卫生室长堰分院母婴室",
                "大类": "医疗保健",
                "中类": "综合医院",
                "省份": "湖北省",
                "城市": "武汉市",
                "区域": "黄陂区"
            },
            "geometry": {
                "type": "Point",
                "coordinates": [
                    114.452427,
                    31.006826
                ]
            }
        },
        {
            "type": "Feature",
            "properties": {
                "名称": "武汉长建医院",
                "大类": "医疗保健",
                "中类": "综合医院",
                "省份": "湖北省",
                "城市": "武汉市",
                "区域": "黄陂区"
            },
            "geometry": {
                "type": "Point",
                "coordinates": [
                    114.459037,
                    31.10036
                ]
            }
        },
        {
            "type": "Feature",
            "properties": {
                "名称": "塔耳医院柿子分院",
                "大类": "医疗保健",
                "中类": "综合医院",
                "省份": "湖北省",
                "城市": "武汉市",
                "区域": "黄陂区"
            },
            "geometry": {
                "type": "Point",
                "coordinates": [
                    114.43511,
                    31.147105
                ]
            }
        },
        {
            "type": "Feature",
            "properties": {
                "名称": "西港村卫生室",
                "大类": "医疗保健",
                "中类": "综合医院",
                "省份": "湖北省",
                "城市": "武汉市",
                "区域": "江夏区"
            },
            "geometry": {
                "type": "Point",
                "coordinates": [
                    114.163738,
                    30.184549
                ]
            }
        },
        {
            "type": "Feature",
            "properties": {
                "名称": "法泗卫生室核酸采样点",
                "大类": "医疗保健",
                "中类": "综合医院",
                "省份": "湖北省",
                "城市": "武汉市",
                "区域": "江夏区"
            },
            "geometry": {
                "type": "Point",
                "coordinates": [
                    114.172322,
                    30.159155
                ]
            }
        },
        {
            "type": "Feature",
            "properties": {
                "名称": "法泗卫生室",
                "大类": "医疗保健",
                "中类": "综合医院",
                "省份": "湖北省",
                "城市": "武汉市",
                "区域": "江夏区"
            },
            "geometry": {
                "type": "Point",
                "coordinates": [
                    114.171917,
                    30.158668
                ]
            }
        },
        {
            "type": "Feature",
            "properties": {
                "名称": "范湖卫生室",
                "大类": "医疗保健",
                "中类": "综合医院",
                "省份": "湖北省",
                "城市": "武汉市",
                "区域": "江夏区"
            },
            "geometry": {
                "type": "Point",
                "coordinates": [
                    114.136298,
                    30.299344
                ]
            }
        },
        {
            "type": "Feature",
            "properties": {
                "名称": "金口街社区卫生中心范湖分中心",
                "大类": "医疗保健",
                "中类": "综合医院",
                "省份": "湖北省",
                "城市": "武汉市",
                "区域": "江夏区"
            },
            "geometry": {
                "type": "Point",
                "coordinates": [
                    114.135756,
                    30.299605
                ]
            }
        },
        {
            "type": "Feature",
            "properties": {
                "名称": "邓南街社区卫生中心",
                "大类": "医疗保健",
                "中类": "综合医院",
                "省份": "湖北省",
                "城市": "武汉市",
                "区域": "汉南区"
            },
            "geometry": {
                "type": "Point",
                "coordinates": [
                    113.987118,
                    30.30042
                ]
            }
        },
        {
            "type": "Feature",
            "properties": {
                "名称": "邓南中心卫生室公共卫生科",
                "大类": "医疗保健",
                "中类": "综合医院",
                "省份": "湖北省",
                "城市": "武汉市",
                "区域": "汉南区"
            },
            "geometry": {
                "type": "Point",
                "coordinates": [
                    113.986289,
                    30.300452
                ]
            }
        },
        {
            "type": "Feature",
            "properties": {
                "名称": "邓南街卫生室",
                "大类": "医疗保健",
                "中类": "综合医院",
                "省份": "湖北省",
                "城市": "武汉市",
                "区域": "汉南区"
            },
            "geometry": {
                "type": "Point",
                "coordinates": [
                    113.987671,
                    30.299605
                ]
            }
        },
        {
            "type": "Feature",
            "properties": {
                "名称": "湘口街卫生室公共卫生楼",
                "大类": "医疗保健",
                "中类": "综合医院",
                "省份": "湖北省",
                "城市": "武汉市",
                "区域": "汉南区"
            },
            "geometry": {
                "type": "Point",
                "coordinates": [
                    113.856895,
                    30.262637
                ]
            }
        },
        {
            "type": "Feature",
            "properties": {
                "名称": "湘口街卫生室",
                "大类": "医疗保健",
                "中类": "综合医院",
                "省份": "湖北省",
                "城市": "武汉市",
                "区域": "汉南区"
            },
            "geometry": {
                "type": "Point",
                "coordinates": [
                    113.857157,
                    30.262308
                ]
            }
        },
        {
            "type": "Feature",
            "properties": {
                "名称": "中共湘口街卫生室支部委员会",
                "大类": "医疗保健",
                "中类": "综合医院",
                "省份": "湖北省",
                "城市": "武汉市",
                "区域": "汉南区"
            },
            "geometry": {
                "type": "Point",
                "coordinates": [
                    113.857018,
                    30.26244
                ]
            }
        },
        {
            "type": "Feature",
            "properties": {
                "名称": "汉方药谷中医院",
                "大类": "医疗保健",
                "中类": "综合医院",
                "省份": "湖北省",
                "城市": "武汉市",
                "区域": "蔡甸区"
            },
            "geometry": {
                "type": "Point",
                "coordinates": [
                    113.934,
                    30.450082
                ]
            }
        },
        {
            "type": "Feature",
            "properties": {
                "名称": "军山医院",
                "大类": "医疗保健",
                "中类": "综合医院",
                "省份": "湖北省",
                "城市": "武汉市",
                "区域": "蔡甸区"
            },
            "geometry": {
                "type": "Point",
                "coordinates": [
                    114.130913,
                    30.367428
                ]
            }
        },
        {
            "type": "Feature",
            "properties": {
                "名称": "军山社区卫生中心",
                "大类": "医疗保健",
                "中类": "综合医院",
                "省份": "湖北省",
                "城市": "武汉市",
                "区域": "蔡甸区"
            },
            "geometry": {
                "type": "Point",
                "coordinates": [
                    114.131413,
                    30.367615
                ]
            }
        },
        {
            "type": "Feature",
            "properties": {
                "名称": "川江池社区卫生中心",
                "大类": "医疗保健",
                "中类": "综合医院",
                "省份": "湖北省",
                "城市": "武汉市",
                "区域": "蔡甸区"
            },
            "geometry": {
                "type": "Point",
                "coordinates": [
                    114.131436,
                    30.366928
                ]
            }
        },
        {
            "type": "Feature",
            "properties": {
                "名称": "军山卫生室军山分院",
                "大类": "医疗保健",
                "中类": "综合医院",
                "省份": "湖北省",
                "城市": "武汉市",
                "区域": "蔡甸区"
            },
            "geometry": {
                "type": "Point",
                "coordinates": [
                    114.131462,
                    30.367510000000003
                ]
            }
        },
        {
            "type": "Feature",
            "properties": {
                "名称": "军山街小军山社区卫生运营服务站",
                "大类": "医疗保健",
                "中类": "综合医院",
                "省份": "湖北省",
                "城市": "武汉市",
                "区域": "蔡甸区"
            },
            "geometry": {
                "type": "Point",
                "coordinates": [
                    114.160255,
                    30.408228
                ]
            }
        },
        {
            "type": "Feature",
            "properties": {
                "名称": "玉贤镇卫生室",
                "大类": "医疗保健",
                "中类": "综合医院",
                "省份": "湖北省",
                "城市": "武汉市",
                "区域": "蔡甸区"
            },
            "geometry": {
                "type": "Point",
                "coordinates": [
                    113.985883,
                    30.52548
                ]
            }
        },
        {
            "type": "Feature",
            "properties": {
                "名称": "玉贤街卫生室公共卫生楼",
                "大类": "医疗保健",
                "中类": "综合医院",
                "省份": "湖北省",
                "城市": "武汉市",
                "区域": "蔡甸区"
            },
            "geometry": {
                "type": "Point",
                "coordinates": [
                    113.985286,
                    30.524692
                ]
            }
        },
        {
            "type": "Feature",
            "properties": {
                "名称": "玉贤街卫生室",
                "大类": "医疗保健",
                "中类": "综合医院",
                "省份": "湖北省",
                "城市": "武汉市",
                "区域": "蔡甸区"
            },
            "geometry": {
                "type": "Point",
                "coordinates": [
                    113.986347,
                    30.524665
                ]
            }
        },
        {
            "type": "Feature",
            "properties": {
                "名称": "索河街卫生室",
                "大类": "医疗保健",
                "中类": "综合医院",
                "省份": "湖北省",
                "城市": "武汉市",
                "区域": "蔡甸区"
            },
            "geometry": {
                "type": "Point",
                "coordinates": [
                    113.905749,
                    30.522743
                ]
            }
        },
        {
            "type": "Feature",
            "properties": {
                "名称": "索河街卫生室综合楼",
                "大类": "医疗保健",
                "中类": "综合医院",
                "省份": "湖北省",
                "城市": "武汉市",
                "区域": "蔡甸区"
            },
            "geometry": {
                "type": "Point",
                "coordinates": [
                    113.906603,
                    30.522033
                ]
            }
        },
        {
            "type": "Feature",
            "properties": {
                "名称": "姚家集街道卫生室门诊部",
                "大类": "医疗保健",
                "中类": "综合医院",
                "省份": "湖北省",
                "城市": "武汉市",
                "区域": "黄陂区"
            },
            "geometry": {
                "type": "Point",
                "coordinates": [
                    114.370519,
                    31.216827
                ]
            }
        },
        {
            "type": "Feature",
            "properties": {
                "名称": "姚家集街道卫生室",
                "大类": "医疗保健",
                "中类": "综合医院",
                "省份": "湖北省",
                "城市": "武汉市",
                "区域": "黄陂区"
            },
            "geometry": {
                "type": "Point",
                "coordinates": [
                    114.369599,
                    31.21722
                ]
            }
        },
        {
            "type": "Feature",
            "properties": {
                "名称": "姚家集街社区卫生中心",
                "大类": "医疗保健",
                "中类": "综合医院",
                "省份": "湖北省",
                "城市": "武汉市",
                "区域": "黄陂区"
            },
            "geometry": {
                "type": "Point",
                "coordinates": [
                    114.370278,
                    31.216656
                ]
            }
        },
        {
            "type": "Feature",
            "properties": {
                "名称": "山坡中心卫生室",
                "大类": "医疗保健",
                "中类": "综合医院",
                "省份": "湖北省",
                "城市": "武汉市",
                "区域": "江夏区"
            },
            "geometry": {
                "type": "Point",
                "coordinates": [
                    114.349038,
                    30.085132
                ]
            }
        },
        {
            "type": "Feature",
            "properties": {
                "名称": "五里界卫生室",
                "大类": "医疗保健",
                "中类": "综合医院",
                "省份": "湖北省",
                "城市": "武汉市",
                "区域": "江夏区"
            },
            "geometry": {
                "type": "Point",
                "coordinates": [
                    114.398133,
                    30.338971
                ]
            }
        },
        {
            "type": "Feature",
            "properties": {
                "名称": "江夏云景山医院",
                "大类": "医疗保健",
                "中类": "综合医院",
                "省份": "湖北省",
                "城市": "武汉市",
                "区域": "江夏区"
            },
            "geometry": {
                "type": "Point",
                "coordinates": [
                    114.269815,
                    30.292126000000003
                ]
            }
        },
        {
            "type": "Feature",
            "properties": {
                "名称": "中国人民解放军3303工厂职工医院",
                "大类": "医疗保健",
                "中类": "综合医院",
                "省份": "湖北省",
                "城市": "武汉市",
                "区域": "武昌区"
            },
            "geometry": {
                "type": "Point",
                "coordinates": [
                    114.285048,
                    30.335678
                ]
            }
        },
        {
            "type": "Feature",
            "properties": {
                "名称": "社区卫生中心3303",
                "大类": "医疗保健",
                "中类": "综合医院",
                "省份": "湖北省",
                "城市": "武汉市",
                "区域": "武昌区"
            },
            "geometry": {
                "type": "Point",
                "coordinates": [
                    114.285013,
                    30.33473
                ]
            }
        },
        {
            "type": "Feature",
            "properties": {
                "名称": "石洞街社区卫生中心",
                "大类": "医疗保健",
                "中类": "综合医院",
                "省份": "湖北省",
                "城市": "武汉市",
                "区域": "武昌区"
            },
            "geometry": {
                "type": "Point",
                "coordinates": [
                    114.285514,
                    30.335324
                ]
            }
        },
        {
            "type": "Feature",
            "properties": {
                "名称": "武汉汉纸医院",
                "大类": "医疗保健",
                "中类": "综合医院",
                "省份": "湖北省",
                "城市": "武汉市",
                "区域": "蔡甸区"
            },
            "geometry": {
                "type": "Point",
                "coordinates": [
                    114.201495,
                    30.460651
                ]
            }
        },
        {
            "type": "Feature",
            "properties": {
                "名称": "东荆社区卫生运营服务站",
                "大类": "医疗保健",
                "中类": "综合医院",
                "省份": "湖北省",
                "城市": "武汉市",
                "区域": "蔡甸区"
            },
            "geometry": {
                "type": "Point",
                "coordinates": [
                    114.20125,
                    30.460658
                ]
            }
        },
        {
            "type": "Feature",
            "properties": {
                "名称": "九峰街社区卫生中心门诊",
                "大类": "医疗保健",
                "中类": "综合医院",
                "省份": "湖北省",
                "城市": "武汉市",
                "区域": "洪山区"
            },
            "geometry": {
                "type": "Point",
                "coordinates": [
                    114.477415,
                    30.504888
                ]
            }
        },
        {
            "type": "Feature",
            "properties": {
                "名称": "东湖新技术开发区九峰街社区卫生中心",
                "大类": "医疗保健",
                "中类": "综合医院",
                "省份": "湖北省",
                "城市": "武汉市",
                "区域": "洪山区"
            },
            "geometry": {
                "type": "Point",
                "coordinates": [
                    114.477831,
                    30.504791
                ]
            }
        },
        {
            "type": "Feature",
            "properties": {
                "名称": "建强社区卫生运营服务站",
                "大类": "医疗保健",
                "中类": "综合医院",
                "省份": "湖北省",
                "城市": "武汉市",
                "区域": "洪山区"
            },
            "geometry": {
                "type": "Point",
                "coordinates": [
                    114.459283,
                    30.534714
                ]
            }
        },
        {
            "type": "Feature",
            "properties": {
                "名称": "鼓架村社区卫生运营服务站",
                "大类": "医疗保健",
                "中类": "综合医院",
                "省份": "湖北省",
                "城市": "武汉市",
                "区域": "洪山区"
            },
            "geometry": {
                "type": "Point",
                "coordinates": [
                    114.459048,
                    30.550078
                ]
            }
        },
        {
            "type": "Feature",
            "properties": {
                "名称": "东湖生态旅游风景区滨湖社区卫生运营服务站",
                "大类": "医疗保健",
                "中类": "综合医院",
                "省份": "湖北省",
                "城市": "武汉市",
                "区域": "洪山区"
            },
            "geometry": {
                "type": "Point",
                "coordinates": [
                    114.452104,
                    30.549305
                ]
            }
        },
        {
            "type": "Feature",
            "properties": {
                "名称": "龙王咀卫生室",
                "大类": "医疗保健",
                "中类": "综合医院",
                "省份": "湖北省",
                "城市": "武汉市",
                "区域": "新洲区"
            },
            "geometry": {
                "type": "Point",
                "coordinates": [
                    114.670444,
                    30.593884
                ]
            }
        },
        {
            "type": "Feature",
            "properties": {
                "名称": "武汉同济航天城医院",
                "大类": "医疗保健",
                "中类": "综合医院",
                "省份": "湖北省",
                "城市": "武汉市",
                "区域": "新洲区"
            },
            "geometry": {
                "type": "Point",
                "coordinates": [
                    114.668956,
                    30.601129
                ]
            }
        },
        {
            "type": "Feature",
            "properties": {
                "名称": "泰康楚园康复医院",
                "大类": "医疗保健",
                "中类": "综合医院",
                "省份": "湖北省",
                "城市": "武汉市",
                "区域": "洪山区"
            },
            "geometry": {
                "type": "Point",
                "coordinates": [
                    114.491729,
                    30.566003
                ]
            }
        },
        {
            "type": "Feature",
            "properties": {
                "名称": "武汉钢铁",
                "大类": "医疗保健",
                "中类": "综合医院",
                "省份": "湖北省",
                "城市": "武汉市",
                "区域": "青山区"
            },
            "geometry": {
                "type": "Point",
                "coordinates": [
                    114.487228,
                    30.602169
                ]
            }
        },
        {
            "type": "Feature",
            "properties": {
                "名称": "武钢二医院精神科",
                "大类": "医疗保健",
                "中类": "综合医院",
                "省份": "湖北省",
                "城市": "武汉市",
                "区域": "青山区"
            },
            "geometry": {
                "type": "Point",
                "coordinates": [
                    114.474877,
                    30.597771
                ]
            }
        },
        {
            "type": "Feature",
            "properties": {
                "名称": "武钢第二职工医院",
                "大类": "医疗保健",
                "中类": "综合医院",
                "省份": "湖北省",
                "城市": "武汉市",
                "区域": "青山区"
            },
            "geometry": {
                "type": "Point",
                "coordinates": [
                    114.487053,
                    30.60291
                ]
            }
        },
        {
            "type": "Feature",
            "properties": {
                "名称": "华润医疗武钢二医院",
                "大类": "医疗保健",
                "中类": "综合医院",
                "省份": "湖北省",
                "城市": "武汉市",
                "区域": "青山区"
            },
            "geometry": {
                "type": "Point",
                "coordinates": [
                    114.487929,
                    30.602905
                ]
            }
        },
        {
            "type": "Feature",
            "properties": {
                "名称": "白玉山街社区卫生中心",
                "大类": "医疗保健",
                "中类": "综合医院",
                "省份": "湖北省",
                "城市": "武汉市",
                "区域": "青山区"
            },
            "geometry": {
                "type": "Point",
                "coordinates": [
                    114.486423,
                    30.602969
                ]
            }
        },
        {
            "type": "Feature",
            "properties": {
                "名称": "武钢第二职工医院门诊部",
                "大类": "医疗保健",
                "中类": "综合医院",
                "省份": "湖北省",
                "城市": "武汉市",
                "区域": "青山区"
            },
            "geometry": {
                "type": "Point",
                "coordinates": [
                    114.486609,
                    30.602317
                ]
            }
        },
        {
            "type": "Feature",
            "properties": {
                "名称": "武汉钢铁",
                "大类": "医疗保健",
                "中类": "综合医院",
                "省份": "湖北省",
                "城市": "武汉市",
                "区域": "青山区"
            },
            "geometry": {
                "type": "Point",
                "coordinates": [
                    114.487197,
                    30.602786
                ]
            }
        },
        {
            "type": "Feature",
            "properties": {
                "名称": "武钢第二职工医院药剂楼",
                "大类": "医疗保健",
                "中类": "综合医院",
                "省份": "湖北省",
                "城市": "武汉市",
                "区域": "青山区"
            },
            "geometry": {
                "type": "Point",
                "coordinates": [
                    114.487611,
                    30.603333
                ]
            }
        },
        {
            "type": "Feature",
            "properties": {
                "名称": "武汉城市学院社区卫生运营服务站",
                "大类": "医疗保健",
                "中类": "综合医院",
                "省份": "湖北省",
                "城市": "武汉市",
                "区域": "洪山区"
            },
            "geometry": {
                "type": "Point",
                "coordinates": [
                    114.427713,
                    30.585353
                ]
            }
        },
        {
            "type": "Feature",
            "properties": {
                "名称": "华中科技大学同济医学院梨园心血管临床医学中心",
                "大类": "医疗保健",
                "中类": "综合医院",
                "省份": "湖北省",
                "城市": "武汉市",
                "区域": "武昌区"
            },
            "geometry": {
                "type": "Point",
                "coordinates": [
                    114.379042,
                    30.581334
                ]
            }
        },
        {
            "type": "Feature",
            "properties": {
                "名称": "华中科技大学同济医学院附属梨园医院预防接种门诊",
                "大类": "医疗保健",
                "中类": "综合医院",
                "省份": "湖北省",
                "城市": "武汉市",
                "区域": "武昌区"
            },
            "geometry": {
                "type": "Point",
                "coordinates": [
                    114.377775,
                    30.582595
                ]
            }
        },
        {
            "type": "Feature",
            "properties": {
                "名称": "华中科技大学同济医学院附属梨园医院DSA介入治疗中心",
                "大类": "医疗保健",
                "中类": "综合医院",
                "省份": "湖北省",
                "城市": "武汉市",
                "区域": "武昌区"
            },
            "geometry": {
                "type": "Point",
                "coordinates": [
                    114.378274,
                    30.581919
                ]
            }
        },
        {
            "type": "Feature",
            "properties": {
                "名称": "华中科技大学同济医学院附属梨园医院急诊",
                "大类": "医疗保健",
                "中类": "综合医院",
                "省份": "湖北省",
                "城市": "武汉市",
                "区域": "武昌区"
            },
            "geometry": {
                "type": "Point",
                "coordinates": [
                    114.377517,
                    30.581888
                ]
            }
        },
        {
            "type": "Feature",
            "properties": {
                "名称": "梨园医院胸痛中心",
                "大类": "医疗保健",
                "中类": "综合医院",
                "省份": "湖北省",
                "城市": "武汉市",
                "区域": "武昌区"
            },
            "geometry": {
                "type": "Point",
                "coordinates": [
                    114.377797,
                    30.581813
                ]
            }
        },
        {
            "type": "Feature",
            "properties": {
                "名称": "梨园医院门诊放射科",
                "大类": "医疗保健",
                "中类": "综合医院",
                "省份": "湖北省",
                "城市": "武汉市",
                "区域": "武昌区"
            },
            "geometry": {
                "type": "Point",
                "coordinates": [
                    114.377427,
                    30.582023000000003
                ]
            }
        },
        {
            "type": "Feature",
            "properties": {
                "名称": "华中科技大学同济医学院附属梨园医院住院部南楼",
                "大类": "医疗保健",
                "中类": "综合医院",
                "省份": "湖北省",
                "城市": "武汉市",
                "区域": "武昌区"
            },
            "geometry": {
                "type": "Point",
                "coordinates": [
                    114.378637,
                    30.582392
                ]
            }
        },
        {
            "type": "Feature",
            "properties": {
                "名称": "华中科技大学同济医学院附属梨园医院住院部北楼",
                "大类": "医疗保健",
                "中类": "综合医院",
                "省份": "湖北省",
                "城市": "武汉市",
                "区域": "武昌区"
            },
            "geometry": {
                "type": "Point",
                "coordinates": [
                    114.379162,
                    30.582454
                ]
            }
        },
        {
            "type": "Feature",
            "properties": {
                "名称": "华中科技大学同济医学院附属梨园医院门诊部",
                "大类": "医疗保健",
                "中类": "综合医院",
                "省份": "湖北省",
                "城市": "武汉市",
                "区域": "武昌区"
            },
            "geometry": {
                "type": "Point",
                "coordinates": [
                    114.378244,
                    30.582309
                ]
            }
        },
        {
            "type": "Feature",
            "properties": {
                "名称": "华中科技大学同济医学院福附属梨园医院住院部",
                "大类": "医疗保健",
                "中类": "综合医院",
                "省份": "湖北省",
                "城市": "武汉市",
                "区域": "武昌区"
            },
            "geometry": {
                "type": "Point",
                "coordinates": [
                    114.379192,
                    30.582251
                ]
            }
        },
        {
            "type": "Feature",
            "properties": {
                "名称": "协和医院质子中心",
                "大类": "医疗保健",
                "中类": "综合医院",
                "省份": "湖北省",
                "城市": "武汉市",
                "区域": "东西湖区"
            },
            "geometry": {
                "type": "Point",
                "coordinates": [
                    114.195192,
                    30.675784
                ]
            }
        },
        {
            "type": "Feature",
            "properties": {
                "名称": "石化医院",
                "大类": "医疗保健",
                "中类": "综合医院",
                "省份": "湖北省",
                "城市": "武汉市",
                "区域": "青山区"
            },
            "geometry": {
                "type": "Point",
                "coordinates": [
                    114.432614,
                    30.657612
                ]
            }
        },
        {
            "type": "Feature",
            "properties": {
                "名称": "武汉普仁青船医院",
                "大类": "医疗保健",
                "中类": "综合医院",
                "省份": "湖北省",
                "城市": "武汉市",
                "区域": "青山区"
            },
            "geometry": {
                "type": "Point",
                "coordinates": [
                    114.437095,
                    30.655002
                ]
            }
        },
        {
            "type": "Feature",
            "properties": {
                "名称": "青山镇街社区卫生中心",
                "大类": "医疗保健",
                "中类": "综合医院",
                "省份": "湖北省",
                "城市": "武汉市",
                "区域": "青山区"
            },
            "geometry": {
                "type": "Point",
                "coordinates": [
                    114.433755,
                    30.656789
                ]
            }
        },
        {
            "type": "Feature",
            "properties": {
                "名称": "谌家矶医院",
                "大类": "医疗保健",
                "中类": "综合医院",
                "省份": "湖北省",
                "城市": "武汉市",
                "区域": "江岸区"
            },
            "geometry": {
                "type": "Point",
                "coordinates": [
                    114.372014,
                    30.677508
                ]
            }
        },
        {
            "type": "Feature",
            "properties": {
                "名称": "长江明珠敬老院医疗中心",
                "大类": "医疗保健",
                "中类": "综合医院",
                "省份": "湖北省",
                "城市": "武汉市",
                "区域": "江岸区"
            },
            "geometry": {
                "type": "Point",
                "coordinates": [
                    114.367711,
                    30.672412
                ]
            }
        },
        {
            "type": "Feature",
            "properties": {
                "名称": "谌家矶街社区卫生中心",
                "大类": "医疗保健",
                "中类": "综合医院",
                "省份": "湖北省",
                "城市": "武汉市",
                "区域": "江岸区"
            },
            "geometry": {
                "type": "Point",
                "coordinates": [
                    114.368039,
                    30.672195
                ]
            }
        },
        {
            "type": "Feature",
            "properties": {
                "名称": "阳逻汽渡社区卫生运营服务站",
                "大类": "医疗保健",
                "中类": "综合医院",
                "省份": "湖北省",
                "城市": "武汉市",
                "区域": "新洲区"
            },
            "geometry": {
                "type": "Point",
                "coordinates": [
                    114.574148,
                    30.627573
                ]
            }
        },
        {
            "type": "Feature",
            "properties": {
                "名称": "汪集街中心卫生室孔埠分院",
                "大类": "医疗保健",
                "中类": "综合医院",
                "省份": "湖北省",
                "城市": "武汉市",
                "区域": "新洲区"
            },
            "geometry": {
                "type": "Point",
                "coordinates": [
                    114.670732,
                    30.804397
                ]
            }
        },
        {
            "type": "Feature",
            "properties": {
                "名称": "甘棠卫生室",
                "大类": "医疗保健",
                "中类": "综合医院",
                "省份": "湖北省",
                "城市": "武汉市",
                "区域": "黄陂区"
            },
            "geometry": {
                "type": "Point",
                "coordinates": [
                    114.586299,
                    30.88252
                ]
            }
        },
        {
            "type": "Feature",
            "properties": {
                "名称": "六指街中心卫生室甘棠分院",
                "大类": "医疗保健",
                "中类": "综合医院",
                "省份": "湖北省",
                "城市": "武汉市",
                "区域": "黄陂区"
            },
            "geometry": {
                "type": "Point",
                "coordinates": [
                    114.585766,
                    30.882331
                ]
            }
        },
        {
            "type": "Feature",
            "properties": {
                "名称": "六指街中心卫生室甘棠分院门诊部",
                "大类": "医疗保健",
                "中类": "综合医院",
                "省份": "湖北省",
                "城市": "武汉市",
                "区域": "黄陂区"
            },
            "geometry": {
                "type": "Point",
                "coordinates": [
                    114.585757,
                    30.882556
                ]
            }
        },
        {
            "type": "Feature",
            "properties": {
                "名称": "六指街中心卫生室甘棠免疫接种门诊",
                "大类": "医疗保健",
                "中类": "综合医院",
                "省份": "湖北省",
                "城市": "武汉市",
                "区域": "黄陂区"
            },
            "geometry": {
                "type": "Point",
                "coordinates": [
                    114.585524,
                    30.88145
                ]
            }
        },
        {
            "type": "Feature",
            "properties": {
                "名称": "横店街建国社区卫生运营服务站",
                "大类": "医疗保健",
                "中类": "综合医院",
                "省份": "湖北省",
                "城市": "武汉市",
                "区域": "黄陂区"
            },
            "geometry": {
                "type": "Point",
                "coordinates": [
                    114.286335,
                    30.80371
                ]
            }
        },
        {
            "type": "Feature",
            "properties": {
                "名称": "武汉长建医院",
                "大类": "医疗保健",
                "中类": "综合医院",
                "省份": "湖北省",
                "城市": "武汉市",
                "区域": "黄陂区"
            },
            "geometry": {
                "type": "Point",
                "coordinates": [
                    114.336002,
                    30.858242
                ]
            }
        },
        {
            "type": "Feature",
            "properties": {
                "名称": "武汉仁德医院",
                "大类": "医疗保健",
                "中类": "综合医院",
                "省份": "湖北省",
                "城市": "武汉市",
                "区域": "黄陂区"
            },
            "geometry": {
                "type": "Point",
                "coordinates": [
                    114.335705,
                    30.857605
                ]
            }
        },
        {
            "type": "Feature",
            "properties": {
                "名称": "汪集街中心卫生室",
                "大类": "医疗保健",
                "中类": "综合医院",
                "省份": "湖北省",
                "城市": "武汉市",
                "区域": "新洲区"
            },
            "geometry": {
                "type": "Point",
                "coordinates": [
                    114.713131,
                    30.776052
                ]
            }
        },
        {
            "type": "Feature",
            "properties": {
                "名称": "李集街张店社区卫生中心",
                "大类": "医疗保健",
                "中类": "综合医院",
                "省份": "湖北省",
                "城市": "武汉市",
                "区域": "新洲区"
            },
            "geometry": {
                "type": "Point",
                "coordinates": [
                    114.743315,
                    30.853603
                ]
            }
        },
        {
            "type": "Feature",
            "properties": {
                "名称": "潘塘街卫生室",
                "大类": "医疗保健",
                "中类": "综合医院",
                "省份": "湖北省",
                "城市": "武汉市",
                "区域": "新洲区"
            },
            "geometry": {
                "type": "Point",
                "coordinates": [
                    114.895088,
                    30.996881
                ]
            }
        },
        {
            "type": "Feature",
            "properties": {
                "名称": "前川街桃花村卫生院",
                "大类": "医疗保健",
                "中类": "综合医院",
                "省份": "湖北省",
                "城市": "武汉市",
                "区域": "黄陂区"
            },
            "geometry": {
                "type": "Point",
                "coordinates": [
                    114.359465,
                    30.904125
                ]
            }
        },
        {
            "type": "Feature",
            "properties": {
                "名称": "王家河街社区卫生中心",
                "大类": "医疗保健",
                "中类": "综合医院",
                "省份": "湖北省",
                "城市": "武汉市",
                "区域": "黄陂区"
            },
            "geometry": {
                "type": "Point",
                "coordinates": [
                    114.422905,
                    30.96047
                ]
            }
        },
        {
            "type": "Feature",
            "properties": {
                "名称": "王家河街卫生室门诊部",
                "大类": "医疗保健",
                "中类": "综合医院",
                "省份": "湖北省",
                "城市": "武汉市",
                "区域": "黄陂区"
            },
            "geometry": {
                "type": "Point",
                "coordinates": [
                    114.422636,
                    30.961299
                ]
            }
        },
        {
            "type": "Feature",
            "properties": {
                "名称": "王家河街道卫生室",
                "大类": "医疗保健",
                "中类": "综合医院",
                "省份": "湖北省",
                "城市": "武汉市",
                "区域": "黄陂区"
            },
            "geometry": {
                "type": "Point",
                "coordinates": [
                    114.42296,
                    30.961107
                ]
            }
        },
        {
            "type": "Feature",
            "properties": {
                "名称": "罗汉寺街道卫生室",
                "大类": "医疗保健",
                "中类": "综合医院",
                "省份": "湖北省",
                "城市": "武汉市",
                "区域": "黄陂区"
            },
            "geometry": {
                "type": "Point",
                "coordinates": [
                    114.308076,
                    30.958719
                ]
            }
        },
        {
            "type": "Feature",
            "properties": {
                "名称": "长轩岭街道中心卫生室",
                "大类": "医疗保健",
                "中类": "综合医院",
                "省份": "湖北省",
                "城市": "武汉市",
                "区域": "黄陂区"
            },
            "geometry": {
                "type": "Point",
                "coordinates": [
                    114.348551,
                    31.090406
                ]
            }
        },
        {
            "type": "Feature",
            "properties": {
                "名称": "长轩岭街道中心卫生室公卫部",
                "大类": "医疗保健",
                "中类": "综合医院",
                "省份": "湖北省",
                "城市": "武汉市",
                "区域": "黄陂区"
            },
            "geometry": {
                "type": "Point",
                "coordinates": [
                    114.348559,
                    31.090567
                ]
            }
        },
        {
            "type": "Feature",
            "properties": {
                "名称": "长轩岭街道中心卫生室核酸采样点",
                "大类": "医疗保健",
                "中类": "综合医院",
                "省份": "湖北省",
                "城市": "武汉市",
                "区域": "黄陂区"
            },
            "geometry": {
                "type": "Point",
                "coordinates": [
                    114.348574,
                    31.090792
                ]
            }
        },
        {
            "type": "Feature",
            "properties": {
                "名称": "金水卫生室",
                "大类": "医疗保健",
                "中类": "综合医院",
                "省份": "湖北省",
                "城市": "武汉市",
                "区域": "江夏区"
            },
            "geometry": {
                "type": "Point",
                "coordinates": [
                    114.123711,
                    30.291777
                ]
            }
        },
        {
            "type": "Feature",
            "properties": {
                "名称": "金口街范湖社区卫生运营服务站",
                "大类": "医疗保健",
                "中类": "综合医院",
                "省份": "湖北省",
                "城市": "武汉市",
                "区域": "江夏区"
            },
            "geometry": {
                "type": "Point",
                "coordinates": [
                    114.127679,
                    30.297617
                ]
            }
        },
        {
            "type": "Feature",
            "properties": {
                "名称": "金港新区社区卫生中心",
                "大类": "医疗保健",
                "中类": "综合医院",
                "省份": "湖北省",
                "城市": "武汉市",
                "区域": "江夏区"
            },
            "geometry": {
                "type": "Point",
                "coordinates": [
                    114.149035,
                    30.340841
                ]
            }
        },
        {
            "type": "Feature",
            "properties": {
                "名称": "乌金社区卫生室",
                "大类": "医疗保健",
                "中类": "综合医院",
                "省份": "湖北省",
                "城市": "武汉市",
                "区域": "汉南区"
            },
            "geometry": {
                "type": "Point",
                "coordinates": [
                    114.054452,
                    30.343465
                ]
            }
        },
        {
            "type": "Feature",
            "properties": {
                "名称": "军山卫生室",
                "大类": "医疗保健",
                "中类": "综合医院",
                "省份": "湖北省",
                "城市": "武汉市",
                "区域": "蔡甸区"
            },
            "geometry": {
                "type": "Point",
                "coordinates": [
                    114.089235,
                    30.407288
                ]
            }
        },
        {
            "type": "Feature",
            "properties": {
                "名称": "军山街凤凰苑社区卫生计划运营服务站",
                "大类": "医疗保健",
                "中类": "综合医院",
                "省份": "湖北省",
                "城市": "武汉市",
                "区域": "蔡甸区"
            },
            "geometry": {
                "type": "Point",
                "coordinates": [
                    114.086795,
                    30.419557
                ]
            }
        },
        {
            "type": "Feature",
            "properties": {
                "名称": "经济技术开发区军山街黄陵社区卫生中心",
                "大类": "医疗保健",
                "中类": "综合医院",
                "省份": "湖北省",
                "城市": "武汉市",
                "区域": "蔡甸区"
            },
            "geometry": {
                "type": "Point",
                "coordinates": [
                    114.088366,
                    30.40828
                ]
            }
        },
        {
            "type": "Feature",
            "properties": {
                "名称": "常福医院",
                "大类": "医疗保健",
                "中类": "综合医院",
                "省份": "湖北省",
                "城市": "武汉市",
                "区域": "蔡甸区"
            },
            "geometry": {
                "type": "Point",
                "coordinates": [
                    113.965333,
                    30.446046000000003
                ]
            }
        },
        {
            "type": "Feature",
            "properties": {
                "名称": "大集街卫生室",
                "大类": "医疗保健",
                "中类": "综合医院",
                "省份": "湖北省",
                "城市": "武汉市",
                "区域": "蔡甸区"
            },
            "geometry": {
                "type": "Point",
                "coordinates": [
                    114.052018,
                    30.506475
                ]
            }
        },
        {
            "type": "Feature",
            "properties": {
                "名称": "大集街生殖健康服务",
                "大类": "医疗保健",
                "中类": "综合医院",
                "省份": "湖北省",
                "城市": "武汉市",
                "区域": "蔡甸区"
            },
            "geometry": {
                "type": "Point",
                "coordinates": [
                    114.050536,
                    30.505595
                ]
            }
        },
        {
            "type": "Feature",
            "properties": {
                "名称": "大集街社区卫生中心健康管理门诊",
                "大类": "医疗保健",
                "中类": "综合医院",
                "省份": "湖北省",
                "城市": "武汉市",
                "区域": "蔡甸区"
            },
            "geometry": {
                "type": "Point",
                "coordinates": [
                    114.051659,
                    30.506557
                ]
            }
        },
        {
            "type": "Feature",
            "properties": {
                "名称": "武汉济安医院",
                "大类": "医疗保健",
                "中类": "综合医院",
                "省份": "湖北省",
                "城市": "武汉市",
                "区域": "蔡甸区"
            },
            "geometry": {
                "type": "Point",
                "coordinates": [
                    114.155977,
                    30.523366
                ]
            }
        },
        {
            "type": "Feature",
            "properties": {
                "名称": "武汉火神山医院",
                "大类": "医疗保健",
                "中类": "综合医院",
                "省份": "湖北省",
                "城市": "武汉市",
                "区域": "蔡甸区"
            },
            "geometry": {
                "type": "Point",
                "coordinates": [
                    114.088131,
                    30.526439
                ]
            }
        },
        {
            "type": "Feature",
            "properties": {
                "名称": "同济医院蔡甸院区科研大楼",
                "大类": "医疗保健",
                "中类": "综合医院",
                "省份": "湖北省",
                "城市": "武汉市",
                "区域": "蔡甸区"
            },
            "geometry": {
                "type": "Point",
                "coordinates": [
                    114.114403,
                    30.53588
                ]
            }
        },
        {
            "type": "Feature",
            "properties": {
                "名称": "同济医院科研大楼",
                "大类": "医疗保健",
                "中类": "综合医院",
                "省份": "湖北省",
                "城市": "武汉市",
                "区域": "蔡甸区"
            },
            "geometry": {
                "type": "Point",
                "coordinates": [
                    114.114552,
                    30.535534
                ]
            }
        },
        {
            "type": "Feature",
            "properties": {
                "名称": "张湾街卫生室",
                "大类": "医疗保健",
                "中类": "综合医院",
                "省份": "湖北省",
                "城市": "武汉市",
                "区域": "蔡甸区"
            },
            "geometry": {
                "type": "Point",
                "coordinates": [
                    113.979518,
                    30.582303
                ]
            }
        },
        {
            "type": "Feature",
            "properties": {
                "名称": "新沟医院",
                "大类": "医疗保健",
                "中类": "综合医院",
                "省份": "湖北省",
                "城市": "武汉市",
                "区域": "东西湖区"
            },
            "geometry": {
                "type": "Point",
                "coordinates": [
                    113.993616,
                    30.635988
                ]
            }
        },
        {
            "type": "Feature",
            "properties": {
                "名称": "新沟卫生室",
                "大类": "医疗保健",
                "中类": "综合医院",
                "省份": "湖北省",
                "城市": "武汉市",
                "区域": "东西湖区"
            },
            "geometry": {
                "type": "Point",
                "coordinates": [
                    113.993185,
                    30.635731
                ]
            }
        },
        {
            "type": "Feature",
            "properties": {
                "名称": "走马岭街中心卫生室新华中心卫生室",
                "大类": "医疗保健",
                "中类": "综合医院",
                "省份": "湖北省",
                "城市": "武汉市",
                "区域": "东西湖区"
            },
            "geometry": {
                "type": "Point",
                "coordinates": [
                    113.993366,
                    30.636406
                ]
            }
        },
        {
            "type": "Feature",
            "properties": {
                "名称": "张湾镇医院",
                "大类": "医疗保健",
                "中类": "综合医院",
                "省份": "湖北省",
                "城市": "武汉市",
                "区域": "蔡甸区"
            },
            "geometry": {
                "type": "Point",
                "coordinates": [
                    113.970733,
                    30.649306
                ]
            }
        },
        {
            "type": "Feature",
            "properties": {
                "名称": "武汉华佑医院",
                "大类": "医疗保健",
                "中类": "综合医院",
                "省份": "湖北省",
                "城市": "武汉市",
                "区域": "东西湖区"
            },
            "geometry": {
                "type": "Point",
                "coordinates": [
                    114.12422,
                    30.738777
                ]
            }
        },
        {
            "type": "Feature",
            "properties": {
                "名称": "新沟镇街卫生室荷包湖院区",
                "大类": "医疗保健",
                "中类": "综合医院",
                "省份": "湖北省",
                "城市": "武汉市",
                "区域": "东西湖区"
            },
            "geometry": {
                "type": "Point",
                "coordinates": [
                    113.980562,
                    30.69704
                ]
            }
        },
        {
            "type": "Feature",
            "properties": {
                "名称": "人民医院蔡店分院",
                "大类": "医疗保健",
                "中类": "综合医院",
                "省份": "湖北省",
                "城市": "武汉市",
                "区域": "黄陂区"
            },
            "geometry": {
                "type": "Point",
                "coordinates": [
                    114.299291,
                    31.288813
                ]
            }
        },
        {
            "type": "Feature",
            "properties": {
                "名称": "蔡店街社区健康运营服务站",
                "大类": "医疗保健",
                "中类": "综合医院",
                "省份": "湖北省",
                "城市": "武汉市",
                "区域": "黄陂区"
            },
            "geometry": {
                "type": "Point",
                "coordinates": [
                    114.297951,
                    31.290708
                ]
            }
        },
        {
            "type": "Feature",
            "properties": {
                "名称": "蔡店乡卫生室计免接种门诊",
                "大类": "医疗保健",
                "中类": "综合医院",
                "省份": "湖北省",
                "城市": "武汉市",
                "区域": "黄陂区"
            },
            "geometry": {
                "type": "Point",
                "coordinates": [
                    114.298631,
                    31.288268
                ]
            }
        },
        {
            "type": "Feature",
            "properties": {
                "名称": "大花山户外运动休闲中心方舱医院",
                "大类": "医疗保健",
                "中类": "综合医院",
                "省份": "湖北省",
                "城市": "武汉市",
                "区域": "江夏区"
            },
            "geometry": {
                "type": "Point",
                "coordinates": [
                    114.349038,
                    30.358272
                ]
            }
        },
        {
            "type": "Feature",
            "properties": {
                "名称": "武汉同心手外科医院",
                "大类": "医疗保健",
                "中类": "综合医院",
                "省份": "湖北省",
                "城市": "武汉市",
                "区域": "江夏区"
            },
            "geometry": {
                "type": "Point",
                "coordinates": [
                    114.352709,
                    30.385835
                ]
            }
        },
        {
            "type": "Feature",
            "properties": {
                "名称": "武汉顾连康复医院",
                "大类": "医疗保健",
                "中类": "综合医院",
                "省份": "湖北省",
                "城市": "武汉市",
                "区域": "江夏区"
            },
            "geometry": {
                "type": "Point",
                "coordinates": [
                    114.424241,
                    30.39426
                ]
            }
        },
        {
            "type": "Feature",
            "properties": {
                "名称": "汉口学院校医院",
                "大类": "医疗保健",
                "中类": "综合医院",
                "省份": "湖北省",
                "城市": "武汉市",
                "区域": "江夏区"
            },
            "geometry": {
                "type": "Point",
                "coordinates": [
                    114.318639,
                    30.418269
                ]
            }
        },
        {
            "type": "Feature",
            "properties": {
                "名称": "武汉交通职业学院医院",
                "大类": "医疗保健",
                "中类": "综合医院",
                "省份": "湖北省",
                "城市": "武汉市",
                "区域": "洪山区"
            },
            "geometry": {
                "type": "Point",
                "coordinates": [
                    114.267796,
                    30.427172
                ]
            }
        },
        {
            "type": "Feature",
            "properties": {
                "名称": "武汉武中医院行政楼",
                "大类": "医疗保健",
                "中类": "综合医院",
                "省份": "湖北省",
                "城市": "武汉市",
                "区域": "洪山区"
            },
            "geometry": {
                "type": "Point",
                "coordinates": [
                    114.311838,
                    30.452551
                ]
            }
        },
        {
            "type": "Feature",
            "properties": {
                "名称": "武中医院住院门诊",
                "大类": "医疗保健",
                "中类": "综合医院",
                "省份": "湖北省",
                "城市": "武汉市",
                "区域": "洪山区"
            },
            "geometry": {
                "type": "Point",
                "coordinates": [
                    114.312416,
                    30.452561
                ]
            }
        },
        {
            "type": "Feature",
            "properties": {
                "名称": "武汉武中医院B楼",
                "大类": "医疗保健",
                "中类": "综合医院",
                "省份": "湖北省",
                "城市": "武汉市",
                "区域": "洪山区"
            },
            "geometry": {
                "type": "Point",
                "coordinates": [
                    114.311643,
                    30.451793
                ]
            }
        },
        {
            "type": "Feature",
            "properties": {
                "名称": "武汉科技大学医院",
                "大类": "医疗保健",
                "中类": "综合医院",
                "省份": "湖北省",
                "城市": "武汉市",
                "区域": "洪山区"
            },
            "geometry": {
                "type": "Point",
                "coordinates": [
                    114.264337,
                    30.443936
                ]
            }
        },
        {
            "type": "Feature",
            "properties": {
                "名称": "华中科技大学协和医院联体医院",
                "大类": "医疗保健",
                "中类": "综合医院",
                "省份": "湖北省",
                "城市": "武汉市",
                "区域": "洪山区"
            },
            "geometry": {
                "type": "Point",
                "coordinates": [
                    114.263194,
                    30.442682
                ]
            }
        },
        {
            "type": "Feature",
            "properties": {
                "名称": "青菱街社区卫生中心",
                "大类": "医疗保健",
                "中类": "综合医院",
                "省份": "湖北省",
                "城市": "武汉市",
                "区域": "洪山区"
            },
            "geometry": {
                "type": "Point",
                "coordinates": [
                    114.263999,
                    30.444325000000003
                ]
            }
        },
        {
            "type": "Feature",
            "properties": {
                "名称": "青菱街社区卫生中心",
                "大类": "医疗保健",
                "中类": "综合医院",
                "省份": "湖北省",
                "城市": "武汉市",
                "区域": "洪山区"
            },
            "geometry": {
                "type": "Point",
                "coordinates": [
                    114.264595,
                    30.442979
                ]
            }
        },
        {
            "type": "Feature",
            "properties": {
                "名称": "青菱街社区卫生中心",
                "大类": "医疗保健",
                "中类": "综合医院",
                "省份": "湖北省",
                "城市": "武汉市",
                "区域": "洪山区"
            },
            "geometry": {
                "type": "Point",
                "coordinates": [
                    114.26471,
                    30.44369
                ]
            }
        },
        {
            "type": "Feature",
            "properties": {
                "名称": "黄家湖医院",
                "大类": "医疗保健",
                "中类": "综合医院",
                "省份": "湖北省",
                "城市": "武汉市",
                "区域": "洪山区"
            },
            "geometry": {
                "type": "Point",
                "coordinates": [
                    114.268191,
                    30.451479
                ]
            }
        },
        {
            "type": "Feature",
            "properties": {
                "名称": "武咸路湖北中医药大学黄家湖校区校医院一楼大厅",
                "大类": "医疗保健",
                "中类": "综合医院",
                "省份": "湖北省",
                "城市": "武汉市",
                "区域": "洪山区"
            },
            "geometry": {
                "type": "Point",
                "coordinates": [
                    114.268497,
                    30.451558
                ]
            }
        },
        {
            "type": "Feature",
            "properties": {
                "名称": "佛祖岭街社区卫生中心",
                "大类": "医疗保健",
                "中类": "综合医院",
                "省份": "湖北省",
                "城市": "武汉市",
                "区域": "江夏区"
            },
            "geometry": {
                "type": "Point",
                "coordinates": [
                    114.455921,
                    30.428372
                ]
            }
        },
        {
            "type": "Feature",
            "properties": {
                "名称": "武汉东湖新技术开发区佛祖岭社区卫生中心",
                "大类": "医疗保健",
                "中类": "综合医院",
                "省份": "湖北省",
                "城市": "武汉市",
                "区域": "江夏区"
            },
            "geometry": {
                "type": "Point",
                "coordinates": [
                    114.456376,
                    30.428092
                ]
            }
        },
        {
            "type": "Feature",
            "properties": {
                "名称": "豹澥街社区卫生中心",
                "大类": "医疗保健",
                "中类": "综合医院",
                "省份": "湖北省",
                "城市": "武汉市",
                "区域": "江夏区"
            },
            "geometry": {
                "type": "Point",
                "coordinates": [
                    114.542981,
                    30.461356
                ]
            }
        },
        {
            "type": "Feature",
            "properties": {
                "名称": "东湖高新区公共卫生中心",
                "大类": "医疗保健",
                "中类": "综合医院",
                "省份": "湖北省",
                "城市": "武汉市",
                "区域": "江夏区"
            },
            "geometry": {
                "type": "Point",
                "coordinates": [
                    114.522499,
                    30.482758
                ]
            }
        },
        {
            "type": "Feature",
            "properties": {
                "名称": "光谷中心城西社区卫生中心",
                "大类": "医疗保健",
                "中类": "综合医院",
                "省份": "湖北省",
                "城市": "武汉市",
                "区域": "洪山区"
            },
            "geometry": {
                "type": "Point",
                "coordinates": [
                    114.488143,
                    30.467305
                ]
            }
        },
        {
            "type": "Feature",
            "properties": {
                "名称": "光谷同清儿童医院",
                "大类": "医疗保健",
                "中类": "综合医院",
                "省份": "湖北省",
                "城市": "武汉市",
                "区域": "洪山区"
            },
            "geometry": {
                "type": "Point",
                "coordinates": [
                    114.464451,
                    30.48532
                ]
            }
        },
        {
            "type": "Feature",
            "properties": {
                "名称": "武汉中德友好医院",
                "大类": "医疗保健",
                "中类": "综合医院",
                "省份": "湖北省",
                "城市": "武汉市",
                "区域": "江夏区"
            },
            "geometry": {
                "type": "Point",
                "coordinates": [
                    114.462333,
                    30.485509
                ]
            }
        },
        {
            "type": "Feature",
            "properties": {
                "名称": "光谷同济儿童医院",
                "大类": "医疗保健",
                "中类": "综合医院",
                "省份": "湖北省",
                "城市": "武汉市",
                "区域": "江夏区"
            },
            "geometry": {
                "type": "Point",
                "coordinates": [
                    114.462558,
                    30.487374
                ]
            }
        },
        {
            "type": "Feature",
            "properties": {
                "名称": "华中科技大学同济医学院附属同济医院光谷院区门诊",
                "大类": "医疗保健",
                "中类": "综合医院",
                "省份": "湖北省",
                "城市": "武汉市",
                "区域": "江夏区"
            },
            "geometry": {
                "type": "Point",
                "coordinates": [
                    114.463436,
                    30.486775
                ]
            }
        },
        {
            "type": "Feature",
            "properties": {
                "名称": "同济医院",
                "大类": "医疗保健",
                "中类": "综合医院",
                "省份": "湖北省",
                "城市": "武汉市",
                "区域": "江夏区"
            },
            "geometry": {
                "type": "Point",
                "coordinates": [
                    114.46388,
                    30.486905
                ]
            }
        },
        {
            "type": "Feature",
            "properties": {
                "名称": "华中科技大学同济医学院附属同济医院",
                "大类": "医疗保健",
                "中类": "综合医院",
                "省份": "湖北省",
                "城市": "武汉市",
                "区域": "江夏区"
            },
            "geometry": {
                "type": "Point",
                "coordinates": [
                    114.463549,
                    30.4862
                ]
            }
        },
        {
            "type": "Feature",
            "properties": {
                "名称": "华中科技大学同济医学院附属同济医院办公室",
                "大类": "医疗保健",
                "中类": "综合医院",
                "省份": "湖北省",
                "城市": "武汉市",
                "区域": "洪山区"
            },
            "geometry": {
                "type": "Point",
                "coordinates": [
                    114.464057,
                    30.486876
                ]
            }
        },
        {
            "type": "Feature",
            "properties": {
                "名称": "华中科技大学同济医学院附属同济医院儿童健教室",
                "大类": "医疗保健",
                "中类": "综合医院",
                "省份": "湖北省",
                "城市": "武汉市",
                "区域": "江夏区"
            },
            "geometry": {
                "type": "Point",
                "coordinates": [
                    114.464497,
                    30.487335
                ]
            }
        },
        {
            "type": "Feature",
            "properties": {
                "名称": "华中科技大学同济医学院附属同济医院护士长办公室",
                "大类": "医疗保健",
                "中类": "综合医院",
                "省份": "湖北省",
                "城市": "武汉市",
                "区域": "江夏区"
            },
            "geometry": {
                "type": "Point",
                "coordinates": [
                    114.463293,
                    30.486593
                ]
            }
        },
        {
            "type": "Feature",
            "properties": {
                "名称": "同济医院",
                "大类": "医疗保健",
                "中类": "综合医院",
                "省份": "湖北省",
                "城市": "武汉市",
                "区域": "江夏区"
            },
            "geometry": {
                "type": "Point",
                "coordinates": [
                    114.462935,
                    30.486712
                ]
            }
        },
        {
            "type": "Feature",
            "properties": {
                "名称": "华中科技大学同济医学院附属同济医院激发室",
                "大类": "医疗保健",
                "中类": "综合医院",
                "省份": "湖北省",
                "城市": "武汉市",
                "区域": "江夏区"
            },
            "geometry": {
                "type": "Point",
                "coordinates": [
                    114.463973,
                    30.487011
                ]
            }
        },
        {
            "type": "Feature",
            "properties": {
                "名称": "同济医院光谷院区营养部C1区",
                "大类": "医疗保健",
                "中类": "综合医院",
                "省份": "湖北省",
                "城市": "武汉市",
                "区域": "洪山区"
            },
            "geometry": {
                "type": "Point",
                "coordinates": [
                    114.464682,
                    30.488655
                ]
            }
        },
        {
            "type": "Feature",
            "properties": {
                "名称": "华中科技大学同济医学院附属同济医院谈话室",
                "大类": "医疗保健",
                "中类": "综合医院",
                "省份": "湖北省",
                "城市": "武汉市",
                "区域": "洪山区"
            },
            "geometry": {
                "type": "Point",
                "coordinates": [
                    114.464398,
                    30.487737
                ]
            }
        },
        {
            "type": "Feature",
            "properties": {
                "名称": "华中科技大学同济医学院附属同济医院光谷院区专用停车场D区",
                "大类": "医疗保健",
                "中类": "综合医院",
                "省份": "湖北省",
                "城市": "武汉市",
                "区域": "江夏区"
            },
            "geometry": {
                "type": "Point",
                "coordinates": [
                    114.464034,
                    30.4882
                ]
            }
        },
        {
            "type": "Feature",
            "properties": {
                "名称": "华中科技大学同济医学院附属同济医院光谷院区专用停车场C区",
                "大类": "医疗保健",
                "中类": "综合医院",
                "省份": "湖北省",
                "城市": "武汉市",
                "区域": "江夏区"
            },
            "geometry": {
                "type": "Point",
                "coordinates": [
                    114.463475,
                    30.487393
                ]
            }
        },
        {
            "type": "Feature",
            "properties": {
                "名称": "华中科技大学同济医学院附属同济医院储物室",
                "大类": "医疗保健",
                "中类": "综合医院",
                "省份": "湖北省",
                "城市": "武汉市",
                "区域": "洪山区"
            },
            "geometry": {
                "type": "Point",
                "coordinates": [
                    114.464046,
                    30.48759
                ]
            }
        },
        {
            "type": "Feature",
            "properties": {
                "名称": "同济医院光谷院区感染性疾病门诊",
                "大类": "医疗保健",
                "中类": "综合医院",
                "省份": "湖北省",
                "城市": "武汉市",
                "区域": "江夏区"
            },
            "geometry": {
                "type": "Point",
                "coordinates": [
                    114.463465,
                    30.488402
                ]
            }
        },
        {
            "type": "Feature",
            "properties": {
                "名称": "华中科技大学同济医学院附属同济医院器械室",
                "大类": "医疗保健",
                "中类": "综合医院",
                "省份": "湖北省",
                "城市": "武汉市",
                "区域": "江夏区"
            },
            "geometry": {
                "type": "Point",
                "coordinates": [
                    114.463835,
                    30.488119
                ]
            }
        },
        {
            "type": "Feature",
            "properties": {
                "名称": "华中科技大学同济医学院附属同济医院消毒供应中心",
                "大类": "医疗保健",
                "中类": "综合医院",
                "省份": "湖北省",
                "城市": "武汉市",
                "区域": "江夏区"
            },
            "geometry": {
                "type": "Point",
                "coordinates": [
                    114.463255,
                    30.48826
                ]
            }
        },
        {
            "type": "Feature",
            "properties": {
                "名称": "武汉未来科技城社区卫生运营服务站",
                "大类": "医疗保健",
                "中类": "综合医院",
                "省份": "湖北省",
                "城市": "武汉市",
                "区域": "江夏区"
            },
            "geometry": {
                "type": "Point",
                "coordinates": [
                    114.540779,
                    30.494644
                ]
            }
        },
        {
            "type": "Feature",
            "properties": {
                "名称": "武东街西区社区卫生中心",
                "大类": "医疗保健",
                "中类": "综合医院",
                "省份": "湖北省",
                "城市": "武汉市",
                "区域": "青山区"
            },
            "geometry": {
                "type": "Point",
                "coordinates": [
                    114.456458,
                    30.580248
                ]
            }
        },
        {
            "type": "Feature",
            "properties": {
                "名称": "武汉普仁广惠医院",
                "大类": "医疗保健",
                "中类": "综合医院",
                "省份": "湖北省",
                "城市": "武汉市",
                "区域": "青山区"
            },
            "geometry": {
                "type": "Point",
                "coordinates": [
                    114.46373,
                    30.578888
                ]
            }
        },
        {
            "type": "Feature",
            "properties": {
                "名称": "武东街东区社区卫生中心",
                "大类": "医疗保健",
                "中类": "综合医院",
                "省份": "湖北省",
                "城市": "武汉市",
                "区域": "青山区"
            },
            "geometry": {
                "type": "Point",
                "coordinates": [
                    114.464001,
                    30.578862
                ]
            }
        },
        {
            "type": "Feature",
            "properties": {
                "名称": "武东街东区社区卫生中心",
                "大类": "医疗保健",
                "中类": "综合医院",
                "省份": "湖北省",
                "城市": "武汉市",
                "区域": "青山区"
            },
            "geometry": {
                "type": "Point",
                "coordinates": [
                    114.463576,
                    30.579366
                ]
            }
        },
        {
            "type": "Feature",
            "properties": {
                "名称": "龚家岭社区卫生运营服务站",
                "大类": "医疗保健",
                "中类": "综合医院",
                "省份": "湖北省",
                "城市": "武汉市",
                "区域": "洪山区"
            },