名称,大类,中类,lng,lat,省份,城市,区域
山坡乡丰收村卫生院,医疗保健,综合医院,114.310992,30.072484,湖北省,武汉市,江夏区
武汉东湖新技术开发区滨湖街社区卫生中心,医疗保健,综合医院,114.466716,30.30231,湖北省,武汉市,江夏区
北京渔美康水产医院,医疗保健,综合医院,114.750519,30.673881,湖北省,武汉市,新洲区
涨渡湖街卫生室,医疗保健,综合医院,114.800767,30.668887,湖北省,武汉市,新洲区
东荆街社区卫生中心,医疗保健,综合医院,113.918501,30.341051,湖北省,武汉市,汉南区
东荆街卫生室,医疗保健,综合医院,113.919289,30.341136,湖北省,武汉市,汉南区
东荆街沟北社区卫生运营服务站,医疗保健,综合医院,113.928963,30.310262,湖北省,武汉市,汉南区
消泗乡卫生室,医疗保健,综合医院,113.780301,30.315879,湖北省,武汉市,蔡甸区
成功卫生室,医疗保健,综合医院,113.716147,30.401861,湖北省,武汉市,蔡甸区
洪北卫生室,医疗保健,综合医院,113.856777,30.392992,湖北省,武汉市,蔡甸区
桐湖卫生室,医疗保健,综合医院,113.94829,30.369461,湖北省,武汉市,蔡甸区
湖泗卫生室,医疗保健,综合医院,114.47289,30.015397,湖北省,武汉市,江夏区
山坡中心卫生室贺站分院,医疗保健,综合医院,114.362167,30.036807,湖北省,武汉市,江夏区
安山卫生室,医疗保健,综合医院,114.290029,30.153964,湖北省,武汉市,江夏区
江夏中心卫生室保福分院,医疗保健,综合医院,114.418685,30.103767,湖北省,武汉市,江夏区
保福卫生室,医疗保健,综合医院,114.418198,30.10322,湖北省,武汉市,江夏区
舒安乡卫生室,医疗保健,综合医院,114.5085,30.113401,湖北省,武汉市,江夏区
舒安街卫生室,医疗保健,综合医院,114.508429,30.114024,湖北省,武汉市,江夏区
郑店卫生室段岭庙分院,医疗保健,综合医院,114.280536,30.264204,湖北省,武汉市,江夏区
武钢乌龙泉矿医院,医疗保健,综合医院,114.317355,30.263754,湖北省,武汉市,江夏区
乌龙泉街卫生室,医疗保健,综合医院,114.333298,30.259185,湖北省,武汉市,江夏区
乌龙泉卫生院公共卫生服务站,医疗保健,综合医院,114.332992,30.259395,湖北省,武汉市,江夏区
乌龙泉街乌龙泉矿社区卫生运营服务站,医疗保健,综合医院,114.320436,30.264426,湖北省,武汉市,江夏区
大埠镇卫生室,医疗保健,综合医院,114.742565,30.611117,湖北省,武汉市,新洲区
青菱街老桥社区卫生运营服务站,医疗保健,综合医院,114.223357,30.412407,湖北省,武汉市,洪山区
龙泉街社区卫生中心,医疗保健,综合医院,114.536599,30.388167,湖北省,武汉市,江夏区
双柳街卫生室,医疗保健,综合医院,114.647722,30.585522,湖北省,武汉市,新洲区
六指卫生室,医疗保健,综合医院,114.497094,30.885271,湖北省,武汉市,黄陂区
六指街中心卫生室,医疗保健,综合医院,114.497322,30.884868,湖北省,武汉市,黄陂区
六指街中心卫生室发热门诊,医疗保健,综合医院,114.498235,30.884105,湖北省,武汉市,黄陂区
六指街社区卫生中心,医疗保健,综合医院,114.497466,30.884815,湖北省,武汉市,黄陂区
大潭原种厂伍家港村卫生室,医疗保健,综合医院,114.392395,30.814020000000003,湖北省,武汉市,黄陂区
c,医疗保健,综合医院,114.35654,30.850588,湖北省,武汉市,黄陂区
黄陂新人民医院,医疗保健,综合医院,114.357923,30.851224,湖北省,武汉市,黄陂区
旧街街社区卫生中心,医疗保健,综合医院,114.926408,30.832487,湖北省,武汉市,新洲区
旧街中心卫生室核酸采样点,医疗保健,综合医院,114.926782,30.832128,湖北省,武汉市,新洲区
旧街中心卫生室,医疗保健,综合医院,114.926481,30.831709,湖北省,武汉市,新洲区
道观河风景旅游区卫生室,医疗保健,综合医院,114.987516,30.87655,湖北省,武汉市,新洲区
辛冲街卫生室门诊部,医疗保健,综合医院,114.818912,30.773139,湖北省,武汉市,新洲区
辛冲卫生室免疫接种门诊,医疗保健,综合医院,114.818522,30.772805,湖北省,武汉市,新洲区
辛冲街卫生室,医疗保健,综合医院,114.818193,30.773222,湖北省,武汉市,新洲区
三店街卫生室和平分院,医疗保健,综合医院,114.862725,30.918648,湖北省,武汉市,新洲区
和平乡卫生室,医疗保健,综合医院,114.863005,30.918798,湖北省,武汉市,新洲区
旧街中心卫生室新集分院,医疗保健,综合医院,114.95174,30.895581,湖北省,武汉市,新洲区
旧街街新集社区卫生运营服务站,医疗保健,综合医院,114.95191,30.896179,湖北省,武汉市,新洲区
新集镇卫生室,医疗保健,综合医院,114.951307,30.895581,湖北省,武汉市,新洲区
徐古中心卫生室住院部,医疗保健,综合医院,114.977943,30.945413,湖北省,武汉市,新洲区
徐古中心卫生室妇保儿保中心,医疗保健,综合医院,114.977741,30.945319,湖北省,武汉市,新洲区
徐古中心卫生室,医疗保健,综合医院,114.978071,30.945543,湖北省,武汉市,新洲区
土庙医院,医疗保健,综合医院,114.235433,30.933805,湖北省,武汉市,黄陂区
三合店村卫生所,医疗保健,综合医院,114.388844,30.990638,湖北省,武汉市,黄陂区
罗汉街卫生室研子分院,医疗保健,综合医院,114.341765,31.015623,湖北省,武汉市,黄陂区
李集街中心卫生室方安分院,医疗保健,综合医院,114.207707,30.9758,湖北省,武汉市,黄陂区
达义村卫生院,医疗保健,综合医院,114.240465,30.952721,湖北省,武汉市,黄陂区
团山卫生所,医疗保健,综合医院,114.501065,30.911258,湖北省,武汉市,黄陂区
王家河镇卫生室长堰分院,医疗保健,综合医院,114.45214,31.007379,湖北省,武汉市,黄陂区
王家河卫生室长堰分院母婴室,医疗保健,综合医院,114.452427,31.006826,湖北省,武汉市,黄陂区
武汉长建医院,医疗保健,综合医院,114.459037,31.10036,湖北省,武汉市,黄陂区
塔耳医院柿子分院,医疗保健,综合医院,114.43511,31.147105,湖北省,武汉市,黄陂区
西港村卫生室,医疗保健,综合医院,114.163738,30.184549,湖北省,武汉市,江夏区
法泗卫生室核酸采样点,医疗保健,综合医院,114.172322,30.159155,湖北省,武汉市,江夏区
法泗卫生室,医疗保健,综合医院,114.171917,30.158668,湖北省,武汉市,江夏区
范湖卫生室,医疗保健,综合医院,114.136298,30.299344,湖北省,武汉市,江夏区
金口街社区卫生中心范湖分中心,医疗保健,综合医院,114.135756,30.299605,湖北省,武汉市,江夏区
邓南街社区卫生中心,医疗保健,综合医院,113.987118,30.30042,湖北省,武汉市,汉南区
邓南中心卫生室公共卫生科,医疗保健,综合医院,113.986289,30.300452,湖北省,武汉市,汉南区
邓南街卫生室,医疗保健,综合医院,113.987671,30.299605,湖北省,武汉市,汉南区
湘口街卫生室公共卫生楼,医疗保健,综合医院,113.856895,30.262637,湖北省,武汉市,汉南区
湘口街卫生室,医疗保健,综合医院,113.857157,30.262308,湖北省,武汉市,汉南区
中共湘口街卫生室支部委员会,医疗保健,综合医院,113.857018,30.26244,湖北省,武汉市,汉南区
汉方药谷中医院,医疗保健,综合医院,113.934,30.450082,湖北省,武汉市,蔡甸区
军山医院,医疗保健,综合医院,114.130913,30.367428,湖北省,武汉市,蔡甸区
军山社区卫生中心,医疗保健,综合医院,114.131413,30.367615,湖北省,武汉市,蔡甸区
川江池社区卫生中心,医疗保健,综合医院,114.131436,30.366928,湖北省,武汉市,蔡甸区
军山卫生室军山分院,医疗保健,综合医院,114.131462,30.367510000000003,湖北省,武汉市,蔡甸区
军山街小军山社区卫生运营服务站,医疗保健,综合医院,114.160255,30.408228,湖北省,武汉市,蔡甸区
玉贤镇卫生室,医疗保健,综合医院,113.985883,30.52548,湖北省,武汉市,蔡甸区
玉贤街卫生室公共卫生楼,医疗保健,综合医院,113.985286,30.524692,湖北省,武汉市,蔡甸区
玉贤街卫生室,医疗保健,综合医院,113.986347,30.524665,湖北省,武汉市,蔡甸区
索河街卫生室,医疗保健,综合医院,113.905749,30.522743,湖北省,武汉市,蔡甸区
索河街卫生室综合楼,医疗保健,综合医院,113.906603,30.522033,湖北省,武汉市,蔡甸区
姚家集街道卫生室门诊部,医疗保健,综合医院,114.370519,31.216827,湖北省,武汉市,黄陂区
姚家集街道卫生室,医疗保健,综合医院,114.369599,31.21722,湖北省,武汉市,黄陂区
姚家集街社区卫生中心,医疗保健,综合医院,114.370278,31.216656,湖北省,武汉市,黄陂区
山坡中心卫生室,医疗保健,综合医院,114.349038,30.085132,湖北省,武汉市,江夏区
五里界卫生室,医疗保健,综合医院,114.398133,30.338971,湖北省,武汉市,江夏区
江夏云景山医院,医疗保健,综合医院,114.269815,30.292126000000003,湖北省,武汉市,江夏区
中国人民解放军3303工厂职工医院,医疗保健,综合医院,114.285048,30.335678,湖北省,武汉市,武昌区
社区卫生中心3303,医疗保健,综合医院,114.285013,30.33473,湖北省,武汉市,武昌区
石洞街社区卫生中心,医疗保健,综合医院,114.285514,30.335324,湖北省,武汉市,武昌区
武汉汉纸医院,医疗保健,综合医院,114.201495,30.460651,湖北省,武汉市,蔡甸区
东荆社区卫生运营服务站,医疗保健,综合医院,114.20125,30.460658,湖北省,武汉市,蔡甸区
九峰街社区卫生中心门诊,医疗保健,综合医院,114.477415,30.504888,湖北省,武汉市,洪山区
东湖新技术开发区九峰街社区卫生中心,医疗保健,综合医院,114.477831,30.504791,湖北省,武汉市,洪山区
建强社区卫生运营服务站,医疗保健,综合医院,114.459283,30.534714,湖北省,武汉市,洪山区
鼓架村社区卫生运营服务站,医疗保健,综合医院,114.459048,30.550078,湖北省,武汉市,洪山区
东湖生态旅游风景区滨湖社区卫生运营服务站,医疗保健,综合医院,114.452104,30.549305,湖北省,武汉市,洪山区
龙王咀卫生室,医疗保健,综合医院,114.670444,30.593884,湖北省,武汉市,新洲区
武汉同济航天城医院,医疗保健,综合医院,114.668956,30.601129,湖北省,武汉市,新洲区
泰康楚园康复医院,医疗保健,综合医院,114.491729,30.566003,湖北省,武汉市,洪山区
武汉钢铁,医疗保健,综合医院,114.487228,30.602169,湖北省,武汉市,青山区
武钢二医院精神科,医疗保健,综合医院,114.474877,30.597771,湖北省,武汉市,青山区
武钢第二职工医院,医疗保健,综合医院,114.487053,30.60291,湖北省,武汉市,青山区
华润医疗武钢二医院,医疗保健,综合医院,114.487929,30.602905,湖北省,武汉市,青山区
白玉山街社区卫生中心,医疗保健,综合医院,114.486423,30.602969,湖北省,武汉市,青山区
武钢第二职工医院门诊部,医疗保健,综合医院,114.486609,30.602317,湖北省,武汉市,青山区
武汉钢铁,医疗保健,综合医院,114.487197,30.602786,湖北省,武汉市,青山区
武钢第二职工医院药剂楼,医疗保健,综合医院,114.487611,30.603333,湖北省,武汉市,青山区
武汉城市学院社区卫生运营服务站,医疗保健,综合医院,114.427713,30.585353,湖北省,武汉市,洪山区
华中科技大学同济医学院梨园心血管临床医学中心,医疗保健,综合医院,114.379042,30.581334,湖北省,武汉市,武昌区
华中科技大学同济医学院附属梨园医院预防接种门诊,医疗保健,综合医院,114.377775,30.582595,湖北省,武汉市,武昌区
华中科技大学同济医学院附属梨园医院DSA介入治疗中心,医疗保健,综合医院,114.378274,30.581919,湖北省,武汉市,武昌区
华中科技大学同济医学院附属梨园医院急诊,医疗保健,综合医院,114.377517,30.581888,湖北省,武汉市,武昌区
梨园医院胸痛中心,医疗保健,综合医院,114.377797,30.581813,湖北省,武汉市,武昌区
梨园医院门诊放射科,医疗保健,综合医院,114.377427,30.582023000000003,湖北省,武汉市,武昌区
华中科技大学同济医学院附属梨园医院住院部南楼,医疗保健,综合医院,114.378637,30.582392,湖北省,武汉市,武昌区
华中科技大学同济医学院附属梨园医院住院部北楼,医疗保健,综合医院,114.379162,30.582454,湖北省,武汉市,武昌区
华中科技大学同济医学院附属梨园医院门诊部,医疗保健,综合医院,114.378244,30.582309,湖北省,武汉市,武昌区
华中科技大学同济医学院福附属梨园医院住院部,医疗保健,综合医院,114.379192,30.582251,湖北省,武汉市,武昌区
协和医院质子中心,医疗保健,综合医院,114.195192,30.675784,湖北省,武汉市,东西湖区
石化医院,医疗保健,综合医院,114.432614,30.657612,湖北省,武汉市,青山区
武汉普仁青船医院,医疗保健,综合医院,114.437095,30.655002,湖北省,武汉市,青山区
青山镇街社区卫生中心,医疗保健,综合医院,114.433755,30.656789,湖北省,武汉市,青山区
谌家矶医院,医疗保健,综合医院,114.372014,30.677508,湖北省,武汉市,江岸区
长江明珠敬老院医疗中心,医疗保健,综合医院,114.367711,30.672412,湖北省,武汉市,江岸区
谌家矶街社区卫生中心,医疗保健,综合医院,114.368039,30.672195,湖北省,武汉市,江岸区
阳逻汽渡社区卫生运营服务站,医疗保健,综合医院,114.574148,30.627573,湖北省,武汉市,新洲区
汪集街中心卫生室孔埠分院,医疗保健,综合医院,114.670732,30.804397,湖北省,武汉市,新洲区
甘棠卫生室,医疗保健,综合医院,114.586299,30.88252,湖北省,武汉市,黄陂区
六指街中心卫生室甘棠分院,医疗保健,综合医院,114.585766,30.882331,湖北省,武汉市,黄陂区
六指街中心卫生室甘棠分院门诊部,医疗保健,综合医院,114.585757,30.882556,湖北省,武汉市,黄陂区
六指街中心卫生室甘棠免疫接种门诊,医疗保健,综合医院,114.585524,30.88145,湖北省,武汉市,黄陂区
横店街建国社区卫生运营服务站,医疗保健,综合医院,114.286335,30.80371,湖北省,武汉市,黄陂区
武汉长建医院,医疗保健,综合医院,114.336002,30.858242,湖北省,武汉市,黄陂区
武汉仁德医院,医疗保健,综合医院,114.335705,30.857605,湖北省,武汉市,黄陂区
汪集街中心卫生室,医疗保健,综合医院,114.713131,30.776052,湖北省,武汉市,新洲区
李集街张店社区卫生中心,医疗保健,综合医院,114.743315,30.853603,湖北省,武汉市,新洲区
潘塘街卫生室,医疗保健,综合医院,114.895088,30.996881,湖北省,武汉市,新洲区
前川街桃花村卫生院,医疗保健,综合医院,114.359465,30.904125,湖北省,武汉市,黄陂区
王家河街社区卫生中心,医疗保健,综合医院,114.422905,30.96047,湖北省,武汉市,黄陂区
王家河街卫生室门诊部,医疗保健,综合医院,114.422636,30.961299,湖北省,武汉市,黄陂区
王家河街道卫生室,医疗保健,综合医院,114.42296,30.961107,湖北省,武汉市,黄陂区
罗汉寺街道卫生室,医疗保健,综合医院,114.308076,30.958719,湖北省,武汉市,黄陂区
长轩岭街道中心卫生室,医疗保健,综合医院,114.348551,31.090406,湖北省,武汉市,黄陂区
长轩岭街道中心卫生室公卫部,医疗保健,综合医院,114.348559,31.090567,湖北省,武汉市,黄陂区
长轩岭街道中心卫生室核酸采样点,医疗保健,综合医院,114.348574,31.090792,湖北省,武汉市,黄陂区
金水卫生室,医疗保健,综合医院,114.123711,30.291777,湖北省,武汉市,江夏区
金口街范湖社区卫生运营服务站,医疗保健,综合医院,114.127679,30.297617,湖北省,武汉市,江夏区
金港新区社区卫生中心,医疗保健,综合医院,114.149035,30.340841,湖北省,武汉市,江夏区
乌金社区卫生室,医疗保健,综合医院,114.054452,30.343465,湖北省,武汉市,汉南区
军山卫生室,医疗保健,综合医院,114.089235,30.407288,湖北省,武汉市,蔡甸区
军山街凤凰苑社区卫生计划运营服务站,医疗保健,综合医院,114.086795,30.419557,湖北省,武汉市,蔡甸区
经济技术开发区军山街黄陵社区卫生中心,医疗保健,综合医院,114.088366,30.40828,湖北省,武汉市,蔡甸区
常福医院,医疗保健,综合医院,113.965333,30.446046000000003,湖北省,武汉市,蔡甸区
大集街卫生室,医疗保健,综合医院,114.052018,30.506475,湖北省,武汉市,蔡甸区
大集街生殖健康服务,医疗保健,综合医院,114.050536,30.505595,湖北省,武汉市,蔡甸区
大集街社区卫生中心健康管理门诊,医疗保健,综合医院,114.051659,30.506557,湖北省,武汉市,蔡甸区
武汉济安医院,医疗保健,综合医院,114.155977,30.523366,湖北省,武汉市,蔡甸区
武汉火神山医院,医疗保健,综合医院,114.088131,30.526439,湖北省,武汉市,蔡甸区
同济医院蔡甸院区科研大楼,医疗保健,综合医院,114.114403,30.53588,湖北省,武汉市,蔡甸区
同济医院科研大楼,医疗保健,综合医院,114.114552,30.535534,湖北省,武汉市,蔡甸区
张湾街卫生室,医疗保健,综合医院,113.979518,30.582303,湖北省,武汉市,蔡甸区
新沟医院,医疗保健,综合医院,113.993616,30.635988,湖北省,武汉市,东西湖区
新沟卫生室,医疗保健,综合医院,113.993185,30.635731,湖北省,武汉市,东西湖区
走马岭街中心卫生室新华中心卫生室,医疗保健,综合医院,113.993366,30.636406,湖北省,武汉市,东西湖区
张湾镇医院,医疗保健,综合医院,113.970733,30.649306,湖北省,武汉市,蔡甸区
武汉华佑医院,医疗保健,综合医院,114.12422,30.738777,湖北省,武汉市,东西湖区
新沟镇街卫生室荷包湖院区,医疗保健,综合医院,113.980562,30.69704,湖北省,武汉市,东西湖区
人民医院蔡店分院,医疗保健,综合医院,114.299291,31.288813,湖北省,武汉市,黄陂区
蔡店街社区健康运营服务站,医疗保健,综合医院,114.297951,31.290708,湖北省,武汉市,黄陂区
蔡店乡卫生室计免接种门诊,医疗保健,综合医院,114.298631,31.288268,湖北省,武汉市,黄陂区
大花山户外运动休闲中心方舱医院,医疗保健,综合医院,114.349038,30.358272,湖北省,武汉市,江夏区
武汉同心手外科医院,医疗保健,综合医院,114.352709,30.385835,湖北省,武汉市,江夏区
武汉顾连康复医院,医疗保健,综合医院,114.424241,30.39426,湖北省,武汉市,江夏区
汉口学院校医院,医疗保健,综合医院,114.318639,30.418269,湖北省,武汉市,江夏区
武汉交通职业学院医院,医疗保健,综合医院,114.267796,30.427172,湖北省,武汉市,洪山区
武汉武中医院行政楼,医疗保健,综合医院,114.311838,30.452551,湖北省,武汉市,洪山区
武中医院住院门诊,医疗保健,综合医院,114.312416,30.452561,湖北省,武汉市,洪山区
武汉武中医院B楼,医疗保健,综合医院,114.311643,30.451793,湖北省,武汉市,洪山区
武汉科技大学医院,医疗保健,综合医院,114.264337,30.443936,湖北省,武汉市,洪山区
华中科技大学协和医院联体医院,医疗保健,综合医院,114.263194,30.442682,湖北省,武汉市,洪山区
青菱街社区卫生中心,医疗保健,综合医院,114.263999,30.444325000000003,湖北省,武汉市,洪山区
青菱街社区卫生中心,医疗保健,综合医院,114.264595,30.442979,湖北省,武汉市,洪山区
青菱街社区卫生中心,医疗保健,综合医院,114.26471,30.44369,湖北省,武汉市,洪山区
黄家湖医院,医疗保健,综合医院,114.268191,30.451479,湖北省,武汉市,洪山区
武咸路湖北中医药大学黄家湖校区校医院一楼大厅,医疗保健,综合医院,114.268497,30.451558,湖北省,武汉市,洪山区
佛祖岭街社区卫生中心,医疗保健,综合医院,114.455921,30.428372,湖北省,武汉市,江夏区
武汉东湖新技术开发区佛祖岭社区卫生中心,医疗保健,综合医院,114.456376,30.428092,湖北省,武汉市,江夏区
豹澥街社区卫生中心,医疗保健,综合医院,114.542981,30.461356,湖北省,武汉市,江夏区
东湖高新区公共卫生中心,医疗保健,综合医院,114.522499,30.482758,湖北省,武汉市,江夏区
光谷中心城西社区卫生中心,医疗保健,综合医院,114.488143,30.467305,湖北省,武汉市,洪山区
光谷同清儿童医院,医疗保健,综合医院,114.464451,30.48532,湖北省,武汉市,洪山区
武汉中德友好医院,医疗保健,综合医院,114.462333,30.485509,湖北省,武汉市,江夏区
光谷同济儿童医院,医疗保健,综合医院,114.462558,30.487374,湖北省,武汉市,江夏区
华中科技大学同济医学院附属同济医院光谷院区门诊,医疗保健,综合医院,114.463436,30.486775,湖北省,武汉市,江夏区
同济医院,医疗保健,综合医院,114.46388,30.486905,湖北省,武汉市,江夏区
华中科技大学同济医学院附属同济医院,医疗保健,综合医院,114.463549,30.4862,湖北省,武汉市,江夏区
华中科技大学同济医学院附属同济医院办公室,医疗保健,综合医院,114.464057,30.486876,湖北省,武汉市,洪山区
华中科技大学同济医学院附属同济医院儿童健教室,医疗保健,综合医院,114.464497,30.487335,湖北省,武汉市,江夏区
华中科技大学同济医学院附属同济医院护士长办公室,医疗保健,综合医院,114.463293,30.486593,湖北省,武汉市,江夏区
同济医院,医疗保健,综合医院,114.462935,30.486712,湖北省,武汉市,江夏区
华中科技大学同济医学院附属同济医院激发室,医疗保健,综合医院,114.463973,30.487011,湖北省,武汉市,江夏区
同济医院光谷院区营养部C1区,医疗保健,综合医院,114.464682,30.488655,湖北省,武汉市,洪山区
华中科技大学同济医学院附属同济医院谈话室,医疗保健,综合医院,114.464398,30.487737,湖北省,武汉市,洪山区
华中科技大学同济医学院附属同济医院光谷院区专用停车场D区,医疗保健,综合医院,114.464034,30.4882,湖北省,武汉市,江夏区
华中科技大学同济医学院附属同济医院光谷院区专用停车场C区,医疗保健,综合医院,114.463475,30.487393,湖北省,武汉市,江夏区
华中科技大学同济医学院附属同济医院储物室,医疗保健,综合医院,114.464046,30.48759,湖北省,武汉市,洪山区
同济医院光谷院区感染性疾病门诊,医疗保健,综合医院,114.463465,30.488402,湖北省,武汉市,江夏区
华中科技大学同济医学院附属同济医院器械室,医疗保健,综合医院,114.463835,30.488119,湖北省,武汉市,江夏区
华中科技大学同济医学院附属同济医院消毒供应中心,医疗保健,综合医院,114.463255,30.48826,湖北省,武汉市,江夏区
武汉未来科技城社区卫生运营服务站,医疗保健,综合医院,114.540779,30.494644,湖北省,武汉市,江夏区
武东街西区社区卫生中心,医疗保健,综合医院,114.456458,30.580248,湖北省,武汉市,青山区
武汉普仁广惠医院,医疗保健,综合医院,114.46373,30.578888,湖北省,武汉市,青山区
武东街东区社区卫生中心,医疗保健,综合医院,114.464001,30.578862,湖北省,武汉市,青山区
武东街东区社区卫生中心,医疗保健,综合医院,114.463576,30.579366,湖北省,武汉市,青山区
龚家岭社区卫生运营服务站,医疗保健,综合医院,114.442224,30.582397,湖北省,武汉市,洪山区
东湖生态旅游风景区第一社区卫生中心,医疗保健,综合医院,114.439648,30.591827,湖北省,武汉市,洪山区
康美社区卫生运营服务站,医疗保健,综合医院,114.479959,30.607635,湖北省,武汉市,青山区
国际博览中心方舱医院,医疗保健,综合医院,114.24207,30.507012,湖北省,武汉市,汉阳区
三桥社区卫生运营服务站,医疗保健,综合医院,114.268125,30.492903,湖北省,武汉市,洪山区
张家湾街社区卫生中心,医疗保健,综合医院,114.28299,30.489846,湖北省,武汉市,洪山区
市三医院医疗联合体,医疗保健,综合医院,114.282742,30.489309,湖北省,武汉市,洪山区
张家湾社区卫生中心核酸采样点,医疗保健,综合医院,114.283346,30.490103,湖北省,武汉市,洪山区
关山街葛光社区卫生运营服务站,医疗保健,综合医院,114.423079,30.490464,湖北省,武汉市,洪山区
东湖医院,医疗保健,综合医院,114.398997,30.531498000000003,湖北省,武汉市,洪山区
东湖风景区第二社区卫生中心,医疗保健,综合医院,114.399464,30.534231,湖北省,武汉市,洪山区
楷恩医疗,医疗保健,综合医院,114.389111,30.530485,湖北省,武汉市,洪山区
中心医院杨春湖院区,医疗保健,综合医院,114.397789,30.600234,湖北省,武汉市,洪山区
白马洲社区卫生运营服务站,医疗保健,综合医院,114.419185,30.601074,湖北省,武汉市,洪山区
青山区厂前街社区卫生中心,医疗保健,综合医院,114.436518,30.613548,湖北省,武汉市,洪山区
华中科技大学同济医学院梨园医院精神心理科,医疗保健,综合医院,114.403798,30.609425,湖北省,武汉市,洪山区
天兴乡卫生室,医疗保健,综合医院,114.404803,30.60453,湖北省,武汉市,洪山区
和平街杨春湖社区卫生中心,医疗保健,综合医院,114.404291,30.609486,湖北省,武汉市,洪山区
武钢集团汉阳钢厂职工医院,医疗保健,综合医院,114.246605,30.558077,湖北省,武汉市,汉阳区
晴川街社区卫生中心,医疗保健,综合医院,114.246224,30.558239,湖北省,武汉市,汉阳区
宗关街社区卫生中心,医疗保健,综合医院,114.227726,30.600514,湖北省,武汉市,硚口区
宗关街发展社区卫生运营服务站,医疗保健,综合医院,114.227981,30.599989,湖北省,武汉市,硚口区
武汉瑞华中医医院,医疗保健,综合医院,114.260269,30.658034,湖北省,武汉市,东西湖区
余华岭社区卫生服务站,医疗保健,综合医院,114.286165,30.660426,湖北省,武汉市,江岸区
金银潭医院,医疗保健,综合医院,114.285201,30.666755,湖北省,武汉市,东西湖区
金银潭医院住院部南楼,医疗保健,综合医院,114.28602,30.665485,湖北省,武汉市,东西湖区
金银潭医院住院部北楼,医疗保健,综合医院,114.285835,30.666807,湖北省,武汉市,东西湖区
金银潭医院综合病房楼,医疗保健,综合医院,114.286447,30.666791,湖北省,武汉市,东西湖区
医疗救治中心,医疗保健,综合医院,114.286631,30.666145,湖北省,武汉市,东西湖区
武汉医疗救治中心门诊部,医疗保健,综合医院,114.286098,30.666775,湖北省,武汉市,东西湖区
肝病研究所,医疗保健,综合医院,114.286342,30.667129,湖北省,武汉市,东西湖区
金银湖街社区卫生中心门诊,医疗保健,综合医院,114.221691,30.664569,湖北省,武汉市,东西湖区
金银湖街社区卫生中心,医疗保健,综合医院,114.221336,30.664433,湖北省,武汉市,东西湖区
常青综合医院,医疗保健,综合医院,114.24319,30.655234,湖北省,武汉市,东西湖区
汉口医院,医疗保健,综合医院,114.320156,30.627606,湖北省,武汉市,江岸区
康复医院,医疗保健,综合医院,114.32052,30.628313,湖北省,武汉市,江岸区
新沟桥街社区卫生中心,医疗保健,综合医院,114.408462,30.630438,湖北省,武汉市,青山区
红钢城街二街社区卫生运营服务站,医疗保健,综合医院,114.403318,30.646636,湖北省,武汉市,青山区
武湖街青龙社区卫生中心,医疗保健,综合医院,114.392691,30.70552,湖北省,武汉市,黄陂区
武湖街高车社区卫生运营服务站,医疗保健,综合医院,114.396487,30.729,湖北省,武汉市,黄陂区
武汉天众医院,医疗保健,综合医院,114.349407,30.71977,湖北省,武汉市,黄陂区
彤百堂中医院,医疗保健,综合医院,114.2451,30.726731,湖北省,武汉市,黄陂区
青山镇街船厂社区卫生运营服务站,医疗保健,综合医院,114.441104,30.654425,湖北省,武汉市,青山区
青山区建设乡卫生室,医疗保健,综合医院,114.460808,30.655369,湖北省,武汉市,洪山区
武汉化学工业园区建设卫生院,医疗保健,综合医院,114.461501,30.655134,湖北省,武汉市,洪山区
周冲社区卫生运营服务站,医疗保健,综合医院,114.575762,30.669039,湖北省,武汉市,新洲区
新城医院,医疗保健,综合医院,114.57767,30.706301,湖北省,武汉市,新洲区
仓埠中心卫生室门诊部,医疗保健,综合医院,114.60064,30.831179,湖北省,武汉市,新洲区
仓埠中心卫生室公共卫生服务大楼,医疗保健,综合医院,114.600349,30.833802,湖北省,武汉市,新洲区
仓埠中心卫生室,医疗保健,综合医院,114.600407,30.831172,湖北省,武汉市,新洲区
健民医院,医疗保健,综合医院,114.679232,30.873963,湖北省,武汉市,新洲区
李集街卫生室,医疗保健,综合医院,114.678713,30.873246,湖北省,武汉市,新洲区
李集街卫生室门诊楼,医疗保健,综合医院,114.678435,30.872761,湖北省,武汉市,新洲区
武汉康元医院,医疗保健,综合医院,114.289032,30.793229,湖北省,武汉市,黄陂区
三里镇卫生室,医疗保健,综合医院,114.425055,30.780412,湖北省,武汉市,黄陂区
三里桥卫生室,医疗保健,综合医院,114.424587,30.780839,湖北省,武汉市,黄陂区
前川街火庙社区卫生运营服务站,医疗保健,综合医院,114.401171,30.852213,湖北省,武汉市,黄陂区
鲁台社区卫生中心,医疗保健,综合医院,114.394954,30.864314,湖北省,武汉市,黄陂区
祁家湾街道卫生室,医疗保健,综合医院,114.233686,30.877412,湖北省,武汉市,黄陂区
祁家湾街社区卫生中心,医疗保健,综合医院,114.234102,30.878029,湖北省,武汉市,黄陂区
汪集街荣生社区卫生运营服务站,医疗保健,综合医院,114.708734,30.774638,湖北省,武汉市,新洲区
德顺康医院,医疗保健,综合医院,114.812226,30.825041,湖北省,武汉市,新洲区
武汉慈杭医院,医疗保健,综合医院,114.818763,30.836585,湖北省,武汉市,新洲区
刘集卫生室桥西医疗中心,医疗保健,综合医院,114.785588,30.846968,湖北省,武汉市,新洲区
凤凰镇卫生室,医疗保健,综合医院,114.755686,30.92442,湖北省,武汉市,新洲区
凤凰街卫生室,医疗保健,综合医院,114.755224,30.924585,湖北省,武汉市,新洲区
人民医院医疗联合体,医疗保健,综合医院,114.756007,30.924142,湖北省,武汉市,新洲区
蔡家榨镇卫生室,医疗保健,综合医院,114.536174,30.925851,湖北省,武汉市,黄陂区
蔡家榨街卫生室门诊部,医疗保健,综合医院,114.536197,30.924737,湖北省,武汉市,黄陂区
蔡榨镇卫生室公共卫生科,医疗保健,综合医院,114.536552,30.925619,湖北省,武汉市,黄陂区
金口中心卫生室,医疗保健,综合医院,114.134605,30.336279,湖北省,武汉市,江夏区
金口中心卫生室感染性疾病门诊,医疗保健,综合医院,114.135132,30.336117,湖北省,武汉市,江夏区
武汉大学人民医院,医疗保健,综合医院,114.072549,30.314142,湖北省,武汉市,汉南区
人民医院门诊,医疗保健,综合医院,114.073227,30.313533,湖北省,武汉市,汉南区
人民医院急诊,医疗保健,综合医院,114.073336,30.314774,湖北省,武汉市,汉南区
侏儒山卫生室住院部,医疗保健,综合医院,113.841872,30.445585,湖北省,武汉市,蔡甸区
侏儒山街社区卫生中心,医疗保健,综合医院,113.841943,30.445049,湖北省,武汉市,蔡甸区
侏儒山卫生室,医疗保健,综合医院,113.841947,30.445889,湖北省,武汉市,蔡甸区
侏儒街中心卫生室,医疗保健,综合医院,113.842127,30.445733,湖北省,武汉市,蔡甸区
永安医院,医疗保健,综合医院,113.942432,30.458622,湖北省,武汉市,蔡甸区
永安街卫生室,医疗保健,综合医院,113.943214,30.458837,湖北省,武汉市,蔡甸区
武汉商学院医疗中心,医疗保健,综合医院,114.087188,30.458148,湖北省,武汉市,蔡甸区
武汉佳瑞医院,医疗保健,综合医院,114.016208,30.443771,湖北省,武汉市,蔡甸区
协和医院西院,医疗保健,综合医院,114.174086,30.493225,湖北省,武汉市,蔡甸区
武汉协和医院西院新住院部,医疗保健,综合医院,114.174304,30.493586,湖北省,武汉市,蔡甸区
协和医院西院医技楼,医疗保健,综合医院,114.173594,30.492842,湖北省,武汉市,蔡甸区
协和医院西院发热门诊,医疗保健,综合医院,114.174025,30.493588,湖北省,武汉市,蔡甸区
协和医院西院放射科,医疗保健,综合医院,114.173858,30.493109,湖北省,武汉市,蔡甸区
武汉经济技术开发区神龙医院,医疗保健,综合医院,114.173761,30.492918,湖北省,武汉市,蔡甸区
华中科技大学同济医学院协和医院西院,医疗保健,综合医院,114.174555,30.493086,湖北省,武汉市,蔡甸区
协和医院西院综合楼,医疗保健,综合医院,114.174316,30.492972,湖北省,武汉市,蔡甸区
协和医院西院协和医院西区功能检查部,医疗保健,综合医院,114.173398,30.493309,湖北省,武汉市,蔡甸区
武汉协和医院西院急诊,医疗保健,综合医院,114.17377,30.492923,湖北省,武汉市,蔡甸区
协和医院西区急救站,医疗保健,综合医院,114.173806,30.49266,湖北省,武汉市,蔡甸区
协和医院西院门诊部,医疗保健,综合医院,114.17318,30.49189,湖北省,武汉市,蔡甸区
龙阳街龙湖东岸社区卫生运营服务站,医疗保健,综合医院,114.194481,30.547439,湖北省,武汉市,汉阳区
琴断口社区卫生中心,医疗保健,综合医院,114.194486,30.546875,湖北省,武汉市,汉阳区
永丰街社区卫生中心,医疗保健,综合医院,114.150854,30.555809,湖北省,武汉市,汉阳区
永丰街惠民苑社区卫生中心,医疗保健,综合医院,114.171895,30.585954,湖北省,武汉市,汉阳区
万济医院,医疗保健,综合医院,114.160015,30.581689,湖北省,武汉市,汉阳区
万济精神卫生康复中心,医疗保健,综合医院,114.159909,30.581373,湖北省,武汉市,汉阳区
惠民苑社区卫生运营服务站,医疗保健,综合医院,114.170691,30.586753,湖北省,武汉市,汉阳区
人民医院门诊部,医疗保健,综合医院,114.043663,30.561926,湖北省,武汉市,蔡甸区
人民医院,医疗保健,综合医院,114.043738,30.561701,湖北省,武汉市,蔡甸区
人民医院,医疗保健,综合医院,114.043898,30.56126,湖北省,武汉市,蔡甸区
协和江北医院,医疗保健,综合医院,114.044019,30.561492,湖北省,武汉市,蔡甸区
人民医院急诊,医疗保健,综合医院,114.044613,30.561508,湖北省,武汉市,蔡甸区
蔡甸协和江北医院,医疗保健,综合医院,114.044678,30.562591,湖北省,武汉市,蔡甸区
仟吉蔡甸协和江北医院,医疗保健,综合医院,114.044062,30.562021,湖北省,武汉市,蔡甸区
人民医院综合楼,医疗保健,综合医院,114.044875,30.563402,湖北省,武汉市,蔡甸区
协和江北医院感染性疾病科,医疗保健,综合医院,114.045385,30.564285,湖北省,武汉市,蔡甸区
蔡甸街河街社区卫生运营服务站,医疗保健,综合医院,114.033709,30.588572,湖北省,武汉市,蔡甸区
新沟镇街卫生室,医疗保健,综合医院,113.947254,30.693205,湖北省,武汉市,东西湖区
辛安渡办事处卫生室,医疗保健,综合医院,113.937083,30.741667,湖北省,武汉市,东西湖区
辛安渡街卫生室核酸采样点,医疗保健,综合医院,113.93707,30.741299,湖北省,武汉市,东西湖区
人民医院,医疗保健,综合医院,114.133458,30.649464,湖北省,武汉市,东西湖区
协和东西湖医院,医疗保健,综合医院,114.132583,30.647933,湖北省,武汉市,东西湖区
金银湖医院,医疗保健,综合医院,114.192343,30.627631,湖北省,武汉市,东西湖区
军星中医院,医疗保健,综合医院,114.184773,30.628056,湖北省,武汉市,硚口区
协和医院金银湖院区门诊部,医疗保健,综合医院,114.195227,30.670351,湖北省,武汉市,东西湖区
协和医院金银湖院区,医疗保健,综合医院,114.195391,30.671427,湖北省,武汉市,东西湖区
径河街卫生室,医疗保健,综合医院,114.16144,30.678023,湖北省,武汉市,东西湖区
东山街卫生室,医疗保健,综合医院,114.017883,30.77472,湖北省,武汉市,东西湖区
中医医院行政办公大楼,医疗保健,综合医院,114.317482,30.342937,湖北省,武汉市,江夏区
纸坊街社区卫生中心青龙山林场社区卫生服务站,医疗保健,综合医院,114.329258,30.344605,湖北省,武汉市,江夏区
郑店街关山社区卫生运营服务站,医疗保健,综合医院,114.298613,30.333637,湖北省,武汉市,江夏区
纸坊街纸坊社区卫生运营服务站,医疗保健,综合医院,114.304168,30.342282,湖北省,武汉市,江夏区
纸坊街社区卫生中心宁安社区卫生服务站,医疗保健,综合医院,114.316468,30.341221,湖北省,武汉市,江夏区
新北社区卫生运营服务站,医疗保健,综合医院,114.311506,30.35117,湖北省,武汉市,江夏区
大桥新区社区卫生中心,医疗保健,综合医院,114.307864,30.405553,湖北省,武汉市,江夏区
中医医院新院区,医疗保健,综合医院,114.342538,30.358449,湖北省,武汉市,江夏区
第一人民医院,医疗保健,综合医院,114.320132,30.371437,湖北省,武汉市,江夏区
第一人民医院发热门诊,医疗保健,综合医院,114.319953,30.370043000000003,湖北省,武汉市,江夏区
华中科技大学协和江南医院,医疗保健,综合医院,114.320644,30.37075,湖北省,武汉市,江夏区
第一人民医院住院楼,医疗保健,综合医院,114.31921,30.371209,湖北省,武汉市,江夏区
第一人民医院门诊,医疗保健,综合医院,114.321281,30.370635,湖北省,武汉市,江夏区
武汉纺织大学阳光校区医院,医疗保健,综合医院,114.335289,30.378295,湖北省,武汉市,江夏区
藏龙岛社区卫生中心,医疗保健,综合医院,114.416316,30.400524,湖北省,武汉市,江夏区
藏龙岛经院社区卫生中心,医疗保健,综合医院,114.429268,30.416722,湖北省,武汉市,江夏区
庙山社区卫生中心,医疗保健,综合医院,114.367429,30.398446,湖北省,武汉市,江夏区
广宁医院,医疗保健,综合医院,114.373285,30.414522,湖北省,武汉市,江夏区
汤逊湖社区卫生运营服务站,医疗保健,综合医院,114.400886,30.460055,湖北省,武汉市,江夏区
万科城市花园卫生运营服务站,医疗保健,综合医院,114.408621,30.45887,湖北省,武汉市,江夏区
武汉东湖新技术开发区公共卫生中心,医疗保健,综合医院,114.425454,30.46174,湖北省,武汉市,江夏区
武汉关东普度医院,医疗保健,综合医院,114.435409,30.477333,湖北省,武汉市,江夏区
医疗保险定点医疗机构,医疗保健,综合医院,114.435735,30.476703,湖北省,武汉市,江夏区
武汉职业技术学校校医院,医疗保健,综合医院,114.409716,30.485765,湖北省,武汉市,洪山区
中南财经政法大学社区卫生中心,医疗保健,综合医院,114.388234,30.473069,湖北省,武汉市,江夏区
中南财经政法大学医院,医疗保健,综合医院,114.387656,30.47258,湖北省,武汉市,江夏区
武汉纺织大学医院,医疗保健,综合医院,114.397934,30.484974,湖北省,武汉市,洪山区
武汉纺织大学社区卫生运营服务站,医疗保健,综合医院,114.397798,30.484733,湖北省,武汉市,洪山区
华中农业大学医院,医疗保健,综合医院,114.353501,30.47352,湖北省,武汉市,洪山区
华中农业大学社区卫生中心,医疗保健,综合医院,114.353347,30.473873,湖北省,武汉市,洪山区
武汉城市职业学院北校区校医院,医疗保健,综合医院,114.321484,30.477163,湖北省,武汉市,洪山区
玫瑰湾社区卫生运营服务站,医疗保健,综合医院,114.344455,30.482117,湖北省,武汉市,洪山区
南湖山庄社区卫生运营服务站,医疗保健,综合医院,114.344136,30.487198000000003,湖北省,武汉市,洪山区
书城路社区卫生运营服务站,医疗保健,综合医院,114.336089,30.484724,湖北省,武汉市,洪山区
武汉南大门综合医院,医疗保健,综合医院,114.328985,30.485516,湖北省,武汉市,洪山区
武汉南大门综合医院住院部,医疗保健,综合医院,114.329706,30.485105,湖北省,武汉市,洪山区
武汉甘霖澜湖医院,医疗保健,综合医院,114.323031,30.486217,湖北省,武汉市,洪山区
青菱街红霞社区卫生运营服务站,医疗保健,综合医院,114.259025,30.437297,湖北省,武汉市,洪山区
狮子山街武南社区卫生运营服务站,医疗保健,综合医院,114.311042,30.474829,湖北省,武汉市,洪山区
湖北工大医院,医疗保健,综合医院,114.311215,30.483509,湖北省,武汉市,洪山区
武南社区卫生服务站湖工大社区卫生中心,医疗保健,综合医院,114.311283,30.483014,湖北省,武汉市,洪山区
武昌首义学院医院,医疗保健,综合医院,114.307449,30.485702,湖北省,武汉市,洪山区
通惠社区卫生运营服务站,医疗保健,综合医院,114.308066,30.485634,湖北省,武汉市,洪山区
烽胜路社区卫生中心,医疗保健,综合医院,114.294139,30.479251,湖北省,武汉市,洪山区
光霞社区卫生运营服务站,医疗保健,综合医院,114.292731,30.487352,湖北省,武汉市,洪山区
武汉大学人民医院,医疗保健,综合医院,114.284349,30.473998,湖北省,武汉市,洪山区
农科院社区卫生运营服务站,医疗保健,综合医院,114.272961,30.479446000000003,湖北省,武汉市,洪山区
长征社区卫生运营服务站,医疗保健,综合医院,114.277946,30.481238,湖北省,武汉市,洪山区
张家湾街长征社区运营服务站,医疗保健,综合医院,114.277527,30.480969,湖北省,武汉市,洪山区
长江社区卫生运营服务站,医疗保健,综合医院,114.267825,30.487031,湖北省,武汉市,洪山区
金色城市社区卫生运营服务站,医疗保健,综合医院,114.260893,30.483637,湖北省,武汉市,洪山区
武汉汉派中医医院,医疗保健,综合医院,114.442867,30.434102,湖北省,武汉市,江夏区
武汉大学人民医院东院,医疗保健,综合医院,114.440999,30.441657,湖北省,武汉市,江夏区
武汉光谷中心医院,医疗保健,综合医院,114.440821,30.439483,湖北省,武汉市,江夏区
武汉大学人民医院东院感染性疾病科,医疗保健,综合医院,114.439485,30.439547,湖北省,武汉市,江夏区
武汉大学人民医院东院区全科医学科,医疗保健,综合医院,114.441674,30.442382,湖北省,武汉市,江夏区
精神卫生中心,医疗保健,综合医院,114.439506,30.441797,湖北省,武汉市,江夏区
武汉大学人民医院东院3号楼,医疗保健,综合医院,114.441516,30.44094,湖北省,武汉市,江夏区
武汉大学人民医院东院7号楼住院部,医疗保健,综合医院,114.441789,30.441597,湖北省,武汉市,江夏区
阳光医院,医疗保健,综合医院,114.445133,30.44487,湖北省,武汉市,江夏区
阳光医院门诊部,医疗保健,综合医院,114.445645,30.444224,湖北省,武汉市,江夏区
佛祖岭第二社区卫生运营服务站,医疗保健,综合医院,114.442166,30.446396,湖北省,武汉市,江夏区
荷叶山卫生运营服务站,医疗保健,综合医院,114.452976,30.502125,湖北省,武汉市,洪山区
花山街社区卫生中心核酸采样点,医疗保健,综合医院,114.522853,30.523356,湖北省,武汉市,洪山区
武汉东湖新技术开发区花山街社区卫生中心,医疗保健,综合医院,114.523164,30.52241,湖北省,武汉市,洪山区
武汉东湖新技术开发区花山街妇幼保健计划生育运营服务站,医疗保健,综合医院,114.522366,30.522805,湖北省,武汉市,洪山区
花山街社区卫生中心发热门诊,医疗保健,综合医院,114.523466,30.52241,湖北省,武汉市,洪山区
左岭街社区卫生中心,医疗保健,综合医院,114.606879,30.493719,湖北省,武汉市,洪山区
洲头街新五里社区卫生运营服务站,医疗保健,综合医院,114.252532,30.518439,湖北省,武汉市,汉阳区
江堤街社区卫生中心,医疗保健,综合医院,114.230211,30.519725,湖北省,武汉市,汉阳区
中医医院,医疗保健,综合医院,114.215479,30.519521,湖北省,武汉市,汉阳区
湖北中医药大学附属国医医院,医疗保健,综合医院,114.214938,30.520278,湖北省,武汉市,汉阳区
芳草社区卫生服务,医疗保健,综合医院,114.199669,30.520525,湖北省,武汉市,汉阳区
狮南社区卫生运营服务站,医疗保健,综合医院,114.314806,30.492798,湖北省,武汉市,洪山区
七一二社区卫生运营服务站,医疗保健,综合医院,114.30909,30.493461,湖北省,武汉市,洪山区
洪山街红旗社区卫生运营服务站,医疗保健,综合医院,114.30766,30.501164,湖北省,武汉市,洪山区
白沙洲街社区卫生中心,医疗保健,综合医院,114.29225,30.514805,湖北省,武汉市,武昌区
武汉东方医院,医疗保健,综合医院,114.300519,30.518045,湖北省,武汉市,武昌区
白沙洲街社区卫生中心,医疗保健,综合医院,114.29425,30.524451,湖北省,武汉市,武昌区
白沙洲医院,医疗保健,综合医院,114.297619,30.523599,湖北省,武汉市,武昌区
白沙洲街第二社区卫生中心,医疗保健,综合医院,114.297117,30.523903,湖北省,武汉市,武昌区
紫阳街社区卫生中心,医疗保健,综合医院,114.297721,30.52408,湖北省,武汉市,武昌区
裕大华医院,医疗保健,综合医院,114.298081,30.526856,湖北省,武汉市,武昌区
人民医院,医疗保健,综合医院,114.298603,30.535396,湖北省,武汉市,武昌区
武汉大学人民医院医疗美容科,医疗保健,综合医院,114.297463,30.536004,湖北省,武汉市,武昌区
人民医院放射科,医疗保健,综合医院,114.300297,30.534412,湖北省,武汉市,武昌区
武汉大学人民医院汽车队,医疗保健,综合医院,114.299489,30.535558,湖北省,武汉市,武昌区
人民医院检验医学中心,医疗保健,综合医院,114.298704,30.535133,湖北省,武汉市,武昌区
人民医院急诊检验,医疗保健,综合医院,114.298578,30.535268,湖北省,武汉市,武昌区
人民医院楚康楼体检中心,医疗保健,综合医院,114.300987,30.535416,湖北省,武汉市,武昌区
人民医院主院区急诊部,医疗保健,综合医院,114.298736,30.535241,湖北省,武汉市,武昌区
武汉大学人民医院肿瘤诊疗中心,医疗保健,综合医院,114.300393,30.534631,湖北省,武汉市,武昌区
武汉大学人民医院民康楼,医疗保健,综合医院,114.297565,30.534788,湖北省,武汉市,武昌区
武汉大学人民医院安康楼,医疗保健,综合医院,114.29912,30.535164,湖北省,武汉市,武昌区
人民医院主院区楚康楼住院部,医疗保健,综合医院,114.300699,30.53538,湖北省,武汉市,武昌区
人民医院主院区安康楼住院部,医疗保健,综合医院,114.299552,30.535476,湖北省,武汉市,武昌区
人民医院主院区门诊部,医疗保健,综合医院,114.298612,30.535112,湖北省,武汉市,武昌区
武汉大学人民医院放射影像中心,医疗保健,综合医院,114.300546,30.534628,湖北省,武汉市,武昌区
人民医院主院区民康楼住院部,医疗保健,综合医院,114.29837,30.534713,湖北省,武汉市,武昌区
武汉大学人民医院消化内镜中心,医疗保健,综合医院,114.300527,30.535259,湖北省,武汉市,武昌区
人民医院主院区泰康楼住院部,医疗保健,综合医院,114.298882,30.535435000000003,湖北省,武汉市,武昌区
鹦鹉街夹河社区卫生服务二站,医疗保健,综合医院,114.26145,30.539289,湖北省,武汉市,汉阳区
鹦鹉花园社区卫生运营服务站,医疗保健,综合医院,114.272791,30.544327,湖北省,武汉市,汉阳区
四新街社区卫生中心,医疗保健,综合医院,114.216506,30.53372,湖北省,武汉市,汉阳区
泰康同济,医疗保健,综合医院,114.232558,30.521788,湖北省,武汉市,汉阳区
泰康同济,医疗保健,综合医院,114.232004,30.521815,湖北省,武汉市,汉阳区
新汉港医院,医疗保健,综合医院,114.242911,30.520932,湖北省,武汉市,汉阳区
江堤街汉博佳园社区卫生运营服务站,医疗保健,综合医院,114.244142,30.524582,湖北省,武汉市,汉阳区
江堤街社区卫生中心公共卫生科,医疗保健,综合医院,114.246895,30.525791,湖北省,武汉市,汉阳区
江欣苑社区健康服务运营中心,医疗保健,综合医院,114.245745,30.53024,湖北省,武汉市,汉阳区
人民医院汉阳医院,医疗保健,综合医院,114.246103,30.548756,湖北省,武汉市,汉阳区
仁爱口腔,医疗保健,综合医院,114.246412,30.548342,湖北省,武汉市,汉阳区
武汉科技大学附属汉阳医院,医疗保健,综合医院,114.246442,30.548848,湖北省,武汉市,汉阳区
汉阳创伤急救医院,医疗保健,综合医院,114.246118,30.549065,湖北省,武汉市,汉阳区
汉阳医院急救服务站,医疗保健,综合医院,114.244988,30.548333,湖北省,武汉市,汉阳区
汉阳医院会议办公大楼,医疗保健,综合医院,114.246432,30.548638,湖北省,武汉市,汉阳区
汉阳医院门诊外科楼,医疗保健,综合医院,114.247008,30.547661,湖北省,武汉市,汉阳区
汉阳医院健康管理部,医疗保健,综合医院,114.245931,30.548162,湖北省,武汉市,汉阳区
泌尿外科疑难疾病会诊中心,医疗保健,综合医院,114.246172,30.549306,湖北省,武汉市,汉阳区
汉阳医院急诊综合楼,医疗保健,综合医院,114.246303,30.548257,湖北省,武汉市,汉阳区
仁爱妇科医院,医疗保健,综合医院,114.246276,30.551568,湖北省,武汉市,汉阳区
五红里社区卫生运营服务站,医疗保健,综合医院,114.233181,30.55312,湖北省,武汉市,汉阳区
五里墩街社区卫生中心,医疗保健,综合医院,114.231164,30.552917,湖北省,武汉市,汉阳区
武汉龙阳医院,医疗保健,综合医院,114.211524,30.546795,湖北省,武汉市,汉阳区
龙阳医院御达急救站,医疗保健,综合医院,114.211432,30.546779,湖北省,武汉市,汉阳区
保利中央公馆社区卫生运营服务站,医疗保健,综合医院,114.324867,30.495357,湖北省,武汉市,洪山区
武昌医院南湖院区,医疗保健,综合医院,114.340349,30.491809,湖北省,武汉市,洪山区
珞狮路社区卫生中心,医疗保健,综合医院,114.339937,30.491753000000003,湖北省,武汉市,洪山区
武昌医院南湖院区门诊部,医疗保健,综合医院,114.340514,30.491802,湖北省,武汉市,洪山区
丽岛社区卫生运营服务站,医疗保健,综合医院,114.34565,30.501715,湖北省,武汉市,洪山区
国针堂颈肩腰腿疼痛医院,医疗保健,综合医院,114.320759,30.497474,湖北省,武汉市,洪山区
洪山街社区卫生中心,医疗保健,综合医院,114.319054,30.497163,湖北省,武汉市,洪山区
肿瘤医院住院部,医疗保健,综合医院,114.365515,30.499539,湖北省,武汉市,洪山区
名都社区卫生运营服务站,医疗保健,综合医院,114.370666,30.503168,湖北省,武汉市,洪山区
名都社区医院,医疗保健,综合医院,114.370815,30.502371,湖北省,武汉市,洪山区
卓刀泉街社区卫生中心,医疗保健,综合医院,114.376062,30.503788,湖北省,武汉市,洪山区
中建三局武汉中心医院,医疗保健,综合医院,114.347788,30.508532,湖北省,武汉市,洪山区
洪山街幸福社区卫生运营服务站,医疗保健,综合医院,114.351848,30.504934,湖北省,武汉市,洪山区
人民检察院机关社区卫生运营服务站,医疗保健,综合医院,114.35488,30.507145,湖北省,武汉市,洪山区
华中师范大学医院中楼,医疗保健,综合医院,114.362331,30.51968,湖北省,武汉市,洪山区
华中师范大学医院南楼,医疗保健,综合医院,114.362475,30.519346,湖北省,武汉市,洪山区
华中师范大学医院北楼,医疗保健,综合医院,114.361942,30.51955,湖北省,武汉市,洪山区
方泰医院,医疗保健,综合医院,114.324896,30.509436,湖北省,武汉市,洪山区
武汉理工大学南湖校区校医院,医疗保健,综合医院,114.338048,30.510028,湖北省,武汉市,洪山区
武汉工程大学医院,医疗保健,综合医院,114.390905,30.500959,湖北省,武汉市,洪山区
卓刀泉街工程大学社区卫生运营服务站,医疗保健,综合医院,114.391069,30.501205,湖北省,武汉市,洪山区
陈如泉甲状腺疾病诊疗中心,医疗保健,综合医院,114.408098,30.506337,湖北省,武汉市,洪山区
长动社区卫生中心,医疗保健,综合医院,114.410854,30.505632,湖北省,武汉市,洪山区
中医院,医疗保健,综合医院,114.40878,30.506105,湖北省,武汉市,洪山区
汽发社区卫生运营服务站,医疗保健,综合医院,114.411912,30.507122,湖北省,武汉市,洪山区
武汉长动医院,医疗保健,综合医院,114.411153,30.505553,湖北省,武汉市,洪山区
机动车驾驶员年审体检定点医院,医疗保健,综合医院,114.411825,30.507109,湖北省,武汉市,洪山区
中医院,医疗保健,综合医院,114.408337,30.506111,湖北省,武汉市,洪山区
从业人员预防性健康检查,医疗保健,综合医院,114.411837,30.507145,湖北省,武汉市,洪山区
中医院光谷院区健康管理中心,医疗保健,综合医院,114.408252,30.506782,湖北省,武汉市,洪山区
中医院光谷院区后勤办公大楼,医疗保健,综合医院,114.409077,30.504961,湖北省,武汉市,洪山区
武汉长动医院急诊,医疗保健,综合医院,114.411346,30.50586,湖北省,武汉市,洪山区
工伤保险定点医院,医疗保健,综合医院,114.41264,30.506943,湖北省,武汉市,洪山区
武汉长动医院门诊部,医疗保健,综合医院,114.411175,30.505567000000003,湖北省,武汉市,洪山区
武汉长动医院,医疗保健,综合医院,114.411972,30.507309,湖北省,武汉市,洪山区
中医院光谷院区发热门诊,医疗保健,综合医院,114.409298,30.507138,湖北省,武汉市,洪山区
预防接种门诊,医疗保健,综合医院,114.411777,30.506443,湖北省,武汉市,洪山区
吹笛社区卫生运营服务站,医疗保健,综合医院,114.437282,30.505331,湖北省,武汉市,洪山区
华中科技大学医院,医疗保健,综合医院,114.432086,30.508849,湖北省,武汉市,洪山区
华中科技大学医院社区卫生中心,医疗保健,综合医院,114.431646,30.508078,湖北省,武汉市,洪山区
华中科技大学医院,医疗保健,综合医院,114.41404,30.517291,湖北省,武汉市,洪山区
华中科技大学社区卫生中心,医疗保健,综合医院,114.414743,30.517644,湖北省,武汉市,洪山区
七一七吴家湾社区卫生运营服务站,医疗保健,综合医院,114.392209,30.508666,湖北省,武汉市,洪山区
中建光谷医院,医疗保健,综合医院,114.402046,30.514835,湖北省,武汉市,洪山区
鲁磨路社区卫生运营服务站,医疗保健,综合医院,114.401879,30.515613,湖北省,武汉市,洪山区
关山街邮电社区卫生中心,医疗保健,综合医院,114.391997,30.51915,湖北省,武汉市,洪山区
武汉体育学院医院,医疗保健,综合医院,114.381382,30.517249,湖北省,武汉市,洪山区
武汉体育学院医院1号楼,医疗保健,综合医院,114.381494,30.51643,湖北省,武汉市,洪山区
武汉体育学院医院2号楼,医疗保健,综合医院,114.380838,30.517506,湖北省,武汉市,洪山区
武汉体育学院医院二门诊公共卫生科,医疗保健,综合医院,114.380721,30.517055,湖北省,武汉市,洪山区
中国地质大学医院,医疗保健,综合医院,114.403576,30.521026000000003,湖北省,武汉市,洪山区
中国地质大学医院住院部,医疗保健,综合医院,114.403342,30.521237,湖北省,武汉市,洪山区
武汉科技大学附属天佑医院新大楼,医疗保健,综合医院,114.326717,30.525198,湖北省,武汉市,武昌区
首义路街武南村社区卫生运营服务站,医疗保健,综合医院,114.318832,30.526359,湖北省,武汉市,武昌区
武汉武锅医院,医疗保健,综合医院,114.337602,30.528786,湖北省,武汉市,武昌区
地质职工医院门诊部,医疗保健,综合医院,114.372382,30.529071,湖北省,武汉市,武昌区
珞珈山街社区卫生中心,医疗保健,综合医院,114.372297,30.528736,湖北省,武汉市,武昌区
地质职工医院,医疗保健,综合医院,114.372755,30.52855,湖北省,武汉市,武昌区
地矿局职工医院,医疗保健,综合医院,114.371595,30.528623,湖北省,武汉市,武昌区
武汉大学医院,医疗保健,综合医院,114.364401,30.533836,湖北省,武汉市,武昌区
武汉大学中南医院,医疗保健,综合医院,114.35327,30.553301,湖北省,武汉市,武昌区
武汉大学中南医院办公大楼,医疗保健,综合医院,114.354343,30.552339,湖北省,武汉市,武昌区
武汉大学中南医院1号楼,医疗保健,综合医院,114.35406,30.55316,湖北省,武汉市,武昌区
武汉大学中南医院3号楼病区,医疗保健,综合医院,114.352982,30.55313,湖北省,武汉市,武昌区
武汉大学中南医院2号楼病区,医疗保健,综合医院,114.35346,30.55271,湖北省,武汉市,武昌区
武汉大学中南医院9号楼,医疗保健,综合医院,114.351384,30.553927,湖北省,武汉市,武昌区
武汉大学中南医院骨科中心,医疗保健,综合医院,114.353057,30.553238,湖北省,武汉市,武昌区
武汉大学中南医院综合大楼,医疗保健,综合医院,114.352706,30.553133000000003,湖北省,武汉市,武昌区
武汉大学中南医院感染性疾病科,医疗保健,综合医院,114.35431,30.552262,湖北省,武汉市,武昌区
武汉大学医学部中南医院中心供应室,医疗保健,综合医院,114.352153,30.553403,湖北省,武汉市,武昌区
武汉大学中南医院附楼,医疗保健,综合医院,114.353974,30.55335,湖北省,武汉市,武昌区
武汉大学中南医院外科楼,医疗保健,综合医院,114.353103,30.553257,湖北省,武汉市,武昌区
中医院,医疗保健,综合医院,114.31748,30.551255,湖北省,武汉市,武昌区
东龙社区健康服务运营中心,医疗保健,综合医院,114.324291,30.551543,湖北省,武汉市,武昌区
武汉大学中南医院4号楼,医疗保健,综合医院,114.353322,30.554425,湖北省,武汉市,武昌区
武汉大学中南医院病案室,医疗保健,综合医院,114.353515,30.553527000000003,湖北省,武汉市,武昌区
武汉大学医学部中南医院住院楼,医疗保健,综合医院,114.353289,30.553993,湖北省,武汉市,武昌区
武汉大学医学部中南医院高干病房,医疗保健,综合医院,114.353068,30.554076,湖北省,武汉市,武昌区
武汉大学医学部中南医院医学影像中心,医疗保健,综合医院,114.354011,30.554076,湖北省,武汉市,武昌区
武汉大学中南医院消毒供应中心,医疗保健,综合医院,114.354592,30.55512,湖北省,武汉市,武昌区
武汉大学医学部临床技能中心,医疗保健,综合医院,114.353869,30.553763,湖北省,武汉市,武昌区
武汉大学中南医院内科综合楼,医疗保健,综合医院,114.353844,30.553713,湖北省,武汉市,武昌区
武汉大学中南医院医学工程科,医疗保健,综合医院,114.35647,30.555695,湖北省,武汉市,武昌区
武汉大学中南医院6号楼病区,医疗保健,综合医院,114.35558,30.55577,湖北省,武汉市,武昌区
东湖路社区卫生运营服务站,医疗保健,综合医院,114.368036,30.562073,湖北省,武汉市,武昌区
华中科技大学同济医学院附属梨园医院病案室,医疗保健,综合医院,114.376802,30.581007,湖北省,武汉市,武昌区
华中科技大学同济医学院附属梨园医院体检中心,医疗保健,综合医院,114.377443,30.581749,湖北省,武汉市,武昌区
华中科技大学同济医学院附属梨园医院感染性疾病科门诊,医疗保健,综合医院,114.3779,30.581262,湖北省,武汉市,武昌区
梨园街东湖社区卫生运营服务站,医疗保健,综合医院,114.370569,30.581966,湖北省,武汉市,洪山区
梨园街社区卫生中心东湖社区服务站,医疗保健,综合医院,114.370091,30.582293,湖北省,武汉市,洪山区
厚德康医院,医疗保健,综合医院,114.373914,30.584475,湖北省,武汉市,洪山区
东湖新城社区卫生运营服务站,医疗保健,综合医院,114.378937,30.590391,湖北省,武汉市,洪山区
美奥医院,医疗保健,综合医院,114.386987,30.58875,湖北省,武汉市,洪山区
和平街和平社区卫生运营服务站,医疗保健,综合医院,114.380681,30.596096,湖北省,武汉市,洪山区
杨春湖社区卫生运营服务站,医疗保健,综合医院,114.414373,30.620073,湖北省,武汉市,洪山区
武汉颐养护理院住院部,医疗保健,综合医院,114.400896,30.615319,湖北省,武汉市,洪山区
武汉洪山复新医院,医疗保健,综合医院,114.40126,30.612672,湖北省,武汉市,洪山区
钢花村街社区卫生中心,医疗保健,综合医院,114.393355,30.617708,湖北省,武汉市,洪山区
民中医院,医疗保健,综合医院,114.380645,30.612715,湖北省,武汉市,洪山区
和平街新鑫园社区卫生运营服务站,医疗保健,综合医院,114.379298,30.614688,湖北省,武汉市,洪山区
青山区钢花村街景胜社区卫生运营服务站,医疗保健,综合医院,114.381215,30.612145,湖北省,武汉市,洪山区
武钢体育中心方舱医院,医疗保健,综合医院,114.389436,30.6124,湖北省,武汉市,洪山区
徐家棚街社区卫生中心,医疗保健,综合医院,114.336262,30.588741,湖北省,武汉市,武昌区
武昌医院,医疗保健,综合医院,114.341693,30.602612,湖北省,武汉市,武昌区
武昌医院西区门诊,医疗保健,综合医院,114.341713,30.602553,湖北省,武汉市,武昌区
武昌医院设备科,医疗保健,综合医院,114.341346,30.60275,湖北省,武汉市,武昌区
武昌医院西区7号楼,医疗保健,综合医院,114.341859,30.602735000000003,湖北省,武汉市,武昌区
武昌医院门诊综合楼,医疗保健,综合医院,114.342516,30.602413,湖北省,武汉市,武昌区
武昌医院西区6号楼,医疗保健,综合医院,114.34187,30.601742,湖北省,武汉市,武昌区
武昌医院西区2号楼,医疗保健,综合医院,114.3414,30.602763,湖北省,武汉市,武昌区
武昌医院西区9号楼,医疗保健,综合医院,114.34154,30.602366,湖北省,武汉市,武昌区
武昌医院西区门诊综合楼,医疗保健,综合医院,114.342366,30.602397,湖北省,武汉市,武昌区
武昌医院西区体检中心,医疗保健,综合医院,114.341956,30.602849000000003,湖北省,武汉市,武昌区
武昌医院西区11号楼,医疗保健,综合医院,114.3406,30.603276,湖北省,武汉市,武昌区
武昌医院西区12号楼,医疗保健,综合医院,114.34101,30.60356,湖北省,武汉市,武昌区
武昌医院西区10号楼,医疗保健,综合医院,114.341117,30.602084,湖北省,武汉市,武昌区
武昌医院西区1号楼,医疗保健,综合医院,114.341628,30.602981,湖北省,武汉市,武昌区
和平街纺机社区卫生运营服务站,医疗保健,综合医院,114.355189,30.593315,湖北省,武汉市,洪山区
爱家国际华城社区卫生运营服务站,医疗保健,综合医院,114.363515,30.590639,湖北省,武汉市,洪山区
和平街爱家国际华城社区卫生服务,医疗保健,综合医院,114.363326,30.590927,湖北省,武汉市,洪山区
东亭医院,医疗保健,综合医院,114.372451,30.588217,湖北省,武汉市,洪山区
丽华苑社区卫生运营服务站,医疗保健,综合医院,114.363563,30.595843,湖北省,武汉市,洪山区
和平街铁机社区卫生运营服务站,医疗保健,综合医院,114.374742,30.596161,湖北省,武汉市,洪山区
港东名居社区卫生运营服务站,医疗保健,综合医院,114.370971,30.603264,湖北省,武汉市,洪山区
青山区钢都绿景苑社区卫生运营服务站,医疗保健,综合医院,114.368975,30.602857,湖北省,武汉市,洪山区
和平街铁机社区卫生运营服务站,医疗保健,综合医院,114.361404,30.599889,湖北省,武汉市,洪山区
武汉理工大学医院余家头分院,医疗保健,综合医院,114.356591,30.603739,湖北省,武汉市,武昌区
和平街中铁花园社区卫生运营服务站,医疗保健,综合医院,114.355488,30.600658000000003,湖北省,武汉市,洪山区
武汉理工大学社区卫生中心,医疗保健,综合医院,114.356782,30.603279,湖北省,武汉市,武昌区
武汉中原医院,医疗保健,综合医院,114.350286,30.606225,湖北省,武汉市,武昌区
武汉中原医院HPV防治总院,医疗保健,综合医院,114.350296,30.606446,湖北省,武汉市,武昌区
武汉中原医院乳腺甲状腺中心,医疗保健,综合医院,114.350309,30.606443,湖北省,武汉市,武昌区
中原医院急诊,医疗保健,综合医院,114.350028,30.605939,湖北省,武汉市,武昌区
杨园街理工大社区卫生中心,医疗保健,综合医院,114.356306,30.603313,湖北省,武汉市,武昌区
和平街社区卫生中心,医疗保健,综合医院,114.359009,30.611432,湖北省,武汉市,武昌区
武汉新江南医院,医疗保健,综合医院,114.349588,30.608549,湖北省,武汉市,武昌区
江南实业集团有限责任公司职工医院,医疗保健,综合医院,114.349582,30.608911,湖北省,武汉市,武昌区
武汉亚洲心脏病医院医联体医院,医疗保健,综合医院,114.349171,30.60918,湖北省,武汉市,武昌区
华城广场社区卫生运营服务站,医疗保健,综合医院,114.362919,30.606244,湖北省,武汉市,洪山区
和平街盛世花园社区卫生运营服务站,医疗保健,综合医院,114.367588,30.607152,湖北省,武汉市,洪山区
铜花街铜都社区卫生中心,医疗保健,综合医院,114.369456,30.612792,湖北省,武汉市,青山区
钢都花园社区卫生中心,医疗保健,综合医院,114.369258,30.61267,湖北省,武汉市,青山区
钢都125街社区卫生运营服务站,医疗保健,综合医院,114.363699,30.612577,湖北省,武汉市,青山区
杨园街余家头社区卫生运营服务站,医疗保健,综合医院,114.354854,30.615935,湖北省,武汉市,武昌区
汉阳经济开发区龙阳新村蓝草坪社区卫生运营服务站,医疗保健,综合医院,114.202846,30.554258,湖北省,武汉市,汉阳区
琴断口街社区卫生中心,医疗保健,综合医院,114.219987,30.558433,湖北省,武汉市,汉阳区
第五医院一分院汉阳大道分院,医疗保健,综合医院,114.220296,30.558301,湖北省,武汉市,汉阳区
第五医院琴断口街社区卫生中心医疗联合体,医疗保健,综合医院,114.220855,30.559203,湖北省,武汉市,汉阳区
生育保险定点医院,医疗保健,综合医院,114.23954,30.55495,湖北省,武汉市,汉阳区
武汉济康名仕康复医院,医疗保健,综合医院,114.235113,30.575613,湖北省,武汉市,硚口区
武汉国医堂医院,医疗保健,综合医院,114.232235,30.576508,湖北省,武汉市,硚口区
医疗保险定点医院,医疗保健,综合医院,114.229748,30.578487000000003,湖北省,武汉市,硚口区
武汉博大医院,医疗保健,综合医院,114.253967,30.586017,湖北省,武汉市,硚口区
武汉汽车配件厂职工医院,医疗保健,综合医院,114.229862,30.580454,湖北省,武汉市,硚口区
宗关街变电社区卫生运营服务站,医疗保健,综合医院,114.230388,30.580175,湖北省,武汉市,硚口区
汉水社区卫生运营服务站,医疗保健,综合医院,114.236904,30.580039,湖北省,武汉市,硚口区
二桥街郭茨口社区卫生运营服务站,医疗保健,综合医院,114.205421,30.570981,湖北省,武汉市,汉阳区
韩家墩街社区卫生中心,医疗保健,综合医院,114.216432,30.584712,湖北省,武汉市,硚口区
武汉南威医院,医疗保健,综合医院,114.262016,30.564816,湖北省,武汉市,硚口区
积玉桥街社区卫生中心,医疗保健,综合医院,114.305135,30.555557,湖北省,武汉市,武昌区
积玉桥街凤凰城社区卫生运营服务站,医疗保健,综合医院,114.307423,30.557554,湖北省,武汉市,武昌区
江汉中西医结合医院,医疗保健,综合医院,114.293681,30.573151000000003,湖北省,武汉市,江汉区
华中科技大学同济医学院附属协和医院,医疗保健,综合医院,114.275204,30.583858000000003,湖北省,武汉市,江汉区
协和医院,医疗保健,综合医院,114.274281,30.582564,湖北省,武汉市,江汉区
华中科技大学同济医学院协和医院,医疗保健,综合医院,114.275903,30.585509,湖北省,武汉市,江汉区
武汉协和医院药学楼,医疗保健,综合医院,114.273114,30.583539,湖北省,武汉市,江汉区
武汉协和医院2号综合楼,医疗保健,综合医院,114.276015,30.584589,湖北省,武汉市,江汉区
武汉协和医院核医学科ECT室,医疗保健,综合医院,114.274777,30.583603,湖北省,武汉市,江汉区
华中科技大学同济医学院附属协和医院外科楼1号楼,医疗保健,综合医院,114.275179,30.582914,湖北省,武汉市,江汉区
华中科技大学同济医学院附属协和医院总务科物资供应中心,医疗保健,综合医院,114.275943,30.584394,湖北省,武汉市,江汉区
华中科技大学同济医学院附属协和医院外科楼2号楼,医疗保健,综合医院,114.273583,30.584915,湖北省,武汉市,江汉区
华中科技大学同济医学院附属协和医院综合楼,医疗保健,综合医院,114.275318,30.583899,湖北省,武汉市,江汉区
协和医院内科楼,医疗保健,综合医院,114.274099,30.584086,湖北省,武汉市,江汉区
华中科技大学同济医学院附属协和医院综合楼1号楼,医疗保健,综合医院,114.275219,30.584374,湖北省,武汉市,江汉区
华中科技大学同济医学院附属协和医院感染病肝病中心,医疗保健,综合医院,114.27581,30.584275,湖北省,武汉市,江汉区
华中科技大学同济医学院附属协和医院本部感染病科门诊,医疗保健,综合医院,114.275572,30.584104,湖北省,武汉市,江汉区
华中科技大学同济医学院附属协和医院本部国际门诊部,医疗保健,综合医院,114.274303,30.583742,湖北省,武汉市,江汉区
华中科技大学同济医学院附属协和医院体检中心,医疗保健,综合医院,114.276113,30.58446,湖北省,武汉市,江汉区
华中科技大学同济医学院附属协和医院门诊楼,医疗保健,综合医院,114.274338,30.583428,湖北省,武汉市,江汉区
华中科技大学同济医学院附属协和医院本部发热门诊,医疗保健,综合医院,114.275602,30.584385,湖北省,武汉市,江汉区
武汉协和医院心血管诊疗中心,医疗保健,综合医院,114.274616,30.583327,湖北省,武汉市,江汉区
武汉协和医院儿科住院部,医疗保健,综合医院,114.275145,30.583262,湖北省,武汉市,江汉区
武汉协和医院感染性疾病科,医疗保健,综合医院,114.275449,30.584451,湖北省,武汉市,江汉区
武汉协和医院内科楼1号楼,医疗保健,综合医院,114.274765,30.58382,湖北省,武汉市,江汉区
华中科技大学同济医学院附属协和医院急诊,医疗保健,综合医院,114.273949,30.582628,湖北省,武汉市,江汉区
华中科技大学同济医学院附属协和医院总务楼,医疗保健,综合医院,114.275807,30.58451,湖北省,武汉市,江汉区
华中科技大学同济医学院附属协和医院总部住院部1区,医疗保健,综合医院,114.275013,30.584142,湖北省,武汉市,江汉区
德国贝朗武汉协和人工关节外科中心,医疗保健,综合医院,114.275219,30.583381,湖北省,武汉市,江汉区
武汉中瑞中医院,医疗保健,综合医院,114.302195,30.589536,湖北省,武汉市,江岸区
中部战区总医院,医疗保健,综合医院,114.308442,30.616213,湖北省,武汉市,江岸区
中部战区总医院住院部,医疗保健,综合医院,114.309329,30.614575,湖北省,武汉市,江岸区
中国人民解放军第一六一医院医技楼,医疗保健,综合医院,114.309271,30.614392,湖北省,武汉市,江岸区
中部战区总医院汉口院区医技楼,医疗保健,综合医院,114.309131,30.613816,湖北省,武汉市,江岸区
部队医院95829,医疗保健,综合医院,114.30572,30.619784,湖北省,武汉市,江岸区
劳动街赵家条社区卫生运营服务站,医疗保健,综合医院,114.301012,30.615023,湖北省,武汉市,江岸区
武汉锦欣中西医结合医院,医疗保健,综合医院,114.299583,30.618723,湖北省,武汉市,江岸区
武汉大学中南医院医疗联合体医院,医疗保健,综合医院,114.261154,30.615974,湖北省,武汉市,江汉区
优抚医院门诊部,医疗保健,综合医院,114.260289,30.61635,湖北省,武汉市,江汉区
优抚医院医技楼,医疗保健,综合医院,114.260065,30.616829,湖北省,武汉市,江汉区
优抚医院医技综合大楼,医疗保健,综合医院,114.259238,30.616390000000003,湖北省,武汉市,江汉区
优抚医院社工科,医疗保健,综合医院,114.260584,30.616378,湖北省,武汉市,江汉区
湖北警官学院医院,医疗保健,综合医院,114.204805,30.590044,湖北省,武汉市,硚口区
普爱医院,医疗保健,综合医院,114.204683,30.593089,湖北省,武汉市,硚口区
第十医院,医疗保健,综合医院,114.204049,30.592608,湖北省,武汉市,硚口区
第四医院,医疗保健,综合医院,114.204755,30.592696,湖北省,武汉市,硚口区
第四医院古田院区卒中中心,医疗保健,综合医院,114.204803,30.593251,湖北省,武汉市,硚口区
普爱医院西院区健康体检部,医疗保健,综合医院,114.20523,30.59333,湖北省,武汉市,硚口区
新华社区卫生运营服务站成人预防接种门诊,医疗保健,综合医院,114.20587,30.593421,湖北省,武汉市,硚口区
新华社区卫生运营服务站,医疗保健,综合医院,114.205846,30.59304,湖北省,武汉市,硚口区
曾家社区卫生运营服务站,医疗保健,综合医院,114.21469,30.596523,湖北省,武汉市,硚口区
第四医院,医疗保健,综合医院,114.203314,30.59585,湖北省,武汉市,硚口区
湖北警官学院医院,医疗保健,综合医院,114.209311,30.600726,湖北省,武汉市,硚口区
古田街古二社区卫生运营服务站,医疗保健,综合医院,114.196042,30.600426,湖北省,武汉市,硚口区
福惠医院,医疗保健,综合医院,114.239253,30.608491,湖北省,武汉市,江汉区
福惠医院康复中心,医疗保健,综合医院,114.23991,30.608448,湖北省,武汉市,江汉区
香缇美景社区卫生运营服务站,医疗保健,综合医院,114.230736,30.617748,湖北省,武汉市,江汉区
省新华民航分院举办汉兴街第二社区卫生中心,医疗保健,综合医院,114.230697,30.617113,湖北省,武汉市,江汉区
长丰街社区东风卫生运营服务站,医疗保健,综合医院,114.209349,30.607439000000003,湖北省,武汉市,硚口区
天勤社区运营服务站,医疗保健,综合医院,114.205648,30.611792,湖北省,武汉市,硚口区
武汉正康医院,医疗保健,综合医院,114.215591,30.621056,湖北省,武汉市,硚口区
长丰街紫润社区卫生运营服务站,医疗保健,综合医院,114.211612,30.621551,湖北省,武汉市,硚口区
常青花园中环东路社区卫生运营服务站,医疗保健,综合医院,114.245867,30.635962,湖北省,武汉市,东西湖区
普爱医院常青分院,医疗保健,综合医院,114.235705,30.636555,湖北省,武汉市,东西湖区
常青花园社区卫生中心,医疗保健,综合医院,114.235501,30.635632,湖北省,武汉市,东西湖区
示范社区卫生中心,医疗保健,综合医院,114.23559,30.635979000000003,湖北省,武汉市,东西湖区
武汉慈名和顺中医医院,医疗保健,综合医院,114.236525,30.643224,湖北省,武汉市,东西湖区
康居六路社区卫生运营服务站,医疗保健,综合医院,114.247951,30.648834,湖北省,武汉市,东西湖区
第二人民医院,医疗保健,综合医院,114.254127,30.650232,湖北省,武汉市,东西湖区
第二人民医院二期,医疗保健,综合医院,114.254738,30.649219,湖北省,武汉市,东西湖区
武汉和田医院,医疗保健,综合医院,114.236789,30.644895,湖北省,武汉市,东西湖区
红桥脑科医院,医疗保健,综合医院,114.277949,30.621219,湖北省,武汉市,江岸区
工伤保险康复定点医院,医疗保健,综合医院,114.277795,30.621305,湖北省,武汉市,江岸区
唐家墩街八古墩社区卫生运营服务站,医疗保健,综合医院,114.271715,30.620588,湖北省,武汉市,江汉区
八古墩社区卫生运营服务站成人预防接种门诊,医疗保健,综合医院,114.271844,30.62074,湖北省,武汉市,江汉区
中心医院后湖院区,医疗保健,综合医院,114.265006,30.628741,湖北省,武汉市,江汉区
中心医院,医疗保健,综合医院,114.265285,30.627939,湖北省,武汉市,江汉区
中心医院后湖院区住院部,医疗保健,综合医院,114.266273,30.628888,湖北省,武汉市,江汉区
汉口花园社区卫生运营服务站,医疗保健,综合医院,114.268555,30.632339,湖北省,武汉市,江岸区
塔子湖街社区卫生中心,医疗保健,综合医院,114.270413,30.629341,湖北省,武汉市,江岸区
武汉新特中医院,医疗保健,综合医院,114.259197,30.633625,湖北省,武汉市,江汉区
武汉广爱医院,医疗保健,综合医院,114.257165,30.634994,湖北省,武汉市,江汉区
武汉仁爱医院,医疗保健,综合医院,114.257005,30.634914,湖北省,武汉市,江汉区
武汉广爱医院医疗美容,医疗保健,综合医院,114.257297,30.635225,湖北省,武汉市,江汉区
汉口医院,医疗保健,综合医院,114.300483,30.625692,湖北省,武汉市,江岸区
汉口医院,医疗保健,综合医院,114.300489,30.625645,湖北省,武汉市,江岸区
汉口医院2号楼,医疗保健,综合医院,114.299915,30.625899,湖北省,武汉市,江岸区
汉口医院4号楼,医疗保健,综合医院,114.30014,30.62515,湖北省,武汉市,江岸区
汉口医院3号楼,医疗保健,综合医院,114.300787,30.625266000000003,湖北省,武汉市,江岸区
汉口医院6号楼,医疗保健,综合医院,114.299427,30.624478,湖北省,武汉市,江岸区
汉口医院7号楼,医疗保健,综合医院,114.30042,30.624333,湖北省,武汉市,江岸区
汉口医院5号楼,医疗保健,综合医院,114.299143,30.625032,湖北省,武汉市,江岸区
汉口医院1号楼,医疗保健,综合医院,114.300193,30.626066,湖北省,武汉市,江岸区
汉口医院西区门诊楼,医疗保健,综合医院,114.300166,30.625876,湖北省,武汉市,江岸区
汉口医院核酸采样点,医疗保健,综合医院,114.300335,30.625915000000003,湖北省,武汉市,江岸区
汉口医院手术综合楼,医疗保健,综合医院,114.300283,30.626142,湖北省,武汉市,江岸区
汉口医院,医疗保健,综合医院,114.300882,30.625472,湖北省,武汉市,江岸区
汉口医院心理复原科,医疗保健,综合医院,114.300207,30.624897,湖北省,武汉市,江岸区
汉口医院住院部,医疗保健,综合医院,114.300352,30.626268,湖北省,武汉市,江岸区
汉口医院门诊部,医疗保健,综合医院,114.300281,30.625241,湖北省,武汉市,江岸区
中国人民解放军空降兵部队医院,医疗保健,综合医院,114.304616,30.62167,湖北省,武汉市,江岸区
中国人民解放军空降兵部队医院办公大楼,医疗保健,综合医院,114.305041,30.620743,湖北省,武汉市,江岸区
中国人民解放军第四五七医院肾病透析科,医疗保健,综合医院,114.305364,30.622589,湖北省,武汉市,江岸区
空降兵军医院核酸检测点,医疗保健,综合医院,114.306242,30.62055,湖北省,武汉市,江岸区
新村街社区卫生中心,医疗保健,综合医院,114.30944,30.630603,湖北省,武汉市,江岸区
健堂医院,医疗保健,综合医院,114.310409,30.628999,湖北省,武汉市,江岸区
正义路社区卫生运营服务站,医疗保健,综合医院,114.288561,30.630684,湖北省,武汉市,江岸区
江岸后湖街生态花园社区卫生运营服务站,医疗保健,综合医院,114.291431,30.638128,湖北省,武汉市,江岸区
第八医院,医疗保健,综合医院,114.305277,30.648417,湖北省,武汉市,江岸区
第八医院,医疗保健,综合医院,114.305115,30.649259,湖北省,武汉市,江岸区
后湖街新益社区卫生运营服务站,医疗保健,综合医院,114.298181,30.647377,湖北省,武汉市,江岸区
全民健身中心方舱医院,医疗保健,综合医院,114.285151,30.640863,湖北省,武汉市,江岸区
武汉盛泰医院,医疗保健,综合医院,114.264155,30.653123,湖北省,武汉市,东西湖区
将军路街卫生室核酸采样点,医疗保健,综合医院,114.26092,30.651638,湖北省,武汉市,东西湖区
武汉和谐中西医结合医院,医疗保健,综合医院,114.29741,30.655751,湖北省,武汉市,江岸区
武汉嘉禾医院,医疗保健,综合医院,114.275817,30.673203,湖北省,武汉市,东西湖区
武汉惠姓医院,医疗保健,综合医院,114.213639,30.652989,湖北省,武汉市,东西湖区
武汉轻工大学医院金银湖校区医院,医疗保健,综合医院,114.223957,30.654001,湖北省,武汉市,东西湖区
武汉轻工大学医院,医疗保健,综合医院,114.223925,30.653939,湖北省,武汉市,东西湖区
普仁江岸医院,医疗保健,综合医院,114.328022,30.635251,湖北省,武汉市,江岸区
二七街社区卫生中心,医疗保健,综合医院,114.318286,30.632932,湖北省,武汉市,江岸区
武汉科技大学医院青山分院,医疗保健,综合医院,114.368905,30.622062,湖北省,武汉市,青山区
武汉科技大学青山校区校医院,医疗保健,综合医院,114.369098,30.621762,湖北省,武汉市,青山区
红卫路大华社区卫生运营服务站,医疗保健,综合医院,114.362644,30.621169,湖北省,武汉市,青山区
红卫路社区卫生中心母婴室,医疗保健,综合医院,114.372913,30.622338000000003,湖北省,武汉市,青山区
红卫路街社区卫生中心,医疗保健,综合医院,114.373062,30.622847,湖北省,武汉市,青山区
三弓路社区卫生运营服务站,医疗保健,综合医院,114.367781,30.626922,湖北省,武汉市,青山区
第六医院岱山院区,医疗保健,综合医院,114.331071,30.647928,湖北省,武汉市,江岸区
岱山医院,医疗保健,综合医院,114.330817,30.648211,湖北省,武汉市,江岸区
丹水池街社区卫生中心,医疗保健,综合医院,114.330982,30.648394,湖北省,武汉市,江岸区
急救中心岱山急救站,医疗保健,综合医院,114.331726,30.647468,湖北省,武汉市,江岸区
丹水池街社区卫生中心口腔科,医疗保健,综合医院,114.331588,30.647298,湖北省,武汉市,江岸区
岱山医院口腔科,医疗保健,综合医院,114.330812,30.647364,湖北省,武汉市,江岸区
冶金街社区卫生中心,医疗保健,综合医院,114.406116,30.625235,湖北省,武汉市,青山区
武钢总医院,医疗保健,综合医院,114.403209,30.632189,湖北省,武汉市,青山区
华润武钢总医院,医疗保健,综合医院,114.403121,30.632211,湖北省,武汉市,青山区
华润武钢总医院,医疗保健,综合医院,114.403551,30.63076,湖北省,武汉市,青山区
华润武钢总医院门诊部,医疗保健,综合医院,114.403464,30.631948,湖北省,武汉市,青山区
武钢总医院急诊,医疗保健,综合医院,114.402884,30.631527,湖北省,武汉市,青山区
华润武钢总医院胸痛中心,医疗保健,综合医院,114.404075,30.631974,湖北省,武汉市,青山区
华润武钢总医院急诊科,医疗保健,综合医院,114.403043,30.632482,湖北省,武汉市,青山区
华润武钢总医院高压氧舱,医疗保健,综合医院,114.402965,30.632754,湖北省,武汉市,青山区
武钢总医院住院部,医疗保健,综合医院,114.404124,30.632008,湖北省,武汉市,青山区
武汉青山印象城印象城社区卫生中心,医疗保健,综合医院,114.39122,30.632699,湖北省,武汉市,青山区
工人村街社区卫生中心,医疗保健,综合医院,114.42191,30.644072,湖北省,武汉市,青山区
武汉普仁利平医院,医疗保健,综合医院,114.417925,30.6452,湖北省,武汉市,青山区
工人村街头社区卫生运营服务站,医疗保健,综合医院,114.41842,30.649319,湖北省,武汉市,青山区
红钢城临江港湾社区卫生运营服务站,医疗保健,综合医院,114.412377,30.650938,湖北省,武汉市,青山区
武汉钢铁,医疗保健,综合医院,114.403679,30.643355,湖北省,武汉市,青山区
武钢二医院北院区,医疗保健,综合医院,114.403909,30.643481,湖北省,武汉市,青山区
武汉钢铁,医疗保健,综合医院,114.403521,30.642687,湖北省,武汉市,青山区
武钢二医院,医疗保健,综合医院,114.404023,30.642577000000003,湖北省,武汉市,青山区
和畅社区卫生运营服务站,医疗保健,综合医院,114.40391,30.642969,湖北省,武汉市,青山区
武汉钢铁集团公司第二职工医院,医疗保健,综合医院,114.403837,30.642715000000003,湖北省,武汉市,青山区
武汉堤角爱康中西医结合医院,医疗保健,综合医院,114.335144,30.656148,湖北省,武汉市,江岸区
商职医院堤角分院,医疗保健,综合医院,114.341199,30.662937,湖北省,武汉市,江岸区
商业职工医院,医疗保健,综合医院,114.341541,30.661952000000003,湖北省,武汉市,江岸区
黄陂滠口街卫生室中医部,医疗保健,综合医院,114.355163,30.712803,湖北省,武汉市,黄陂区
滠口街卫生室,医疗保健,综合医院,114.355084,30.713224,湖北省,武汉市,黄陂区
武湖街卫生室,医疗保健,综合医院,114.421063,30.703349000000003,湖北省,武汉市,黄陂区
武汉康华医院,医疗保健,综合医院,114.379455,30.719398,湖北省,武汉市,黄陂区
第一医院盘龙城院区,医疗保健,综合医院,114.25513,30.704499,湖北省,武汉市,黄陂区
武汉二八八医院,医疗保健,综合医院,114.311447,30.693417,湖北省,武汉市,黄陂区
二八八医院2号楼,医疗保健,综合医院,114.311365,30.693523,湖北省,武汉市,黄陂区
武汉颐乐医疗中心,医疗保健,综合医院,114.29912,30.700362,湖北省,武汉市,黄陂区
武汉慈惠医院,医疗保健,综合医院,114.294736,30.700031,湖北省,武汉市,黄陂区
第一医院,医疗保健,综合医院,114.296204,30.711583,湖北省,武汉市,黄陂区
第一医院,医疗保健,综合医院,114.25625,30.703701,湖北省,武汉市,黄陂区
中西医结合医院,医疗保健,综合医院,114.255923,30.704508,湖北省,武汉市,黄陂区
中城时代社区卫生运营服务站,医疗保健,综合医院,114.284558,30.704012,湖北省,武汉市,黄陂区
第六医院江汉大学附属医院,医疗保健,综合医院,114.280071,30.711846,湖北省,武汉市,黄陂区
人民医院盘龙城院区,医疗保健,综合医院,114.260331,30.716531,湖北省,武汉市,黄陂区
人民医院盘龙城院区120值班室,医疗保健,综合医院,114.259979,30.71588,湖北省,武汉市,黄陂区
急救中心盘龙城急救站,医疗保健,综合医院,114.260522,30.716028,湖北省,武汉市,黄陂区
武汉盘龙城经济开发区卫生室,医疗保健,综合医院,114.260207,30.717068,湖北省,武汉市,黄陂区
人民医院盘龙城院区门诊部,医疗保健,综合医院,114.260582,30.715904,湖北省,武汉市,黄陂区
武汉佳宁医院,医疗保健,综合医院,114.241849,30.730067,湖北省,武汉市,黄陂区
阳逻街军安社区,医疗保健,综合医院,114.578377,30.653248,湖北省,武汉市,新洲区
武汉德泰仁生老年病医院,医疗保健,综合医院,114.559695,30.667109,湖北省,武汉市,新洲区
德泰仁生医院,医疗保健,综合医院,114.559888,30.667835,湖北省,武汉市,新洲区
环湖社区卫生运营服务站,医疗保健,综合医院,114.560013,30.667381,湖北省,武汉市,新洲区
天琴湾社区卫生运营服务站,医疗保健,综合医院,114.573829,30.677021,湖北省,武汉市,新洲区
中山医院,医疗保健,综合医院,114.583406,30.676534,湖北省,武汉市,新洲区
第三人民医院,医疗保健,综合医院,114.582931,30.677144,湖北省,武汉市,新洲区
阳逻中心医院,医疗保健,综合医院,114.58363,30.677797,湖北省,武汉市,新洲区
武汉贝莱中医医院,医疗保健,综合医院,114.577092,30.674963,湖北省,武汉市,新洲区
社区卫生运营服务站,医疗保健,综合医院,114.582048,30.690242,湖北省,武汉市,新洲区
供销社庄稼医院,医疗保健,综合医院,114.297411,30.805816,湖北省,武汉市,黄陂区
人民医院健康联合体,医疗保健,综合医院,114.294303,30.804239,湖北省,武汉市,黄陂区
横店街中心卫生室母婴室,医疗保健,综合医院,114.294302,30.804159,湖北省,武汉市,黄陂区
横店街中心卫生室门诊部,医疗保健,综合医院,114.294185,30.804157,湖北省,武汉市,黄陂区
公共卫生部,医疗保健,综合医院,114.293987,30.804407,湖北省,武汉市,黄陂区
天河街道卫生室,医疗保健,综合医院,114.219028,30.803363,湖北省,武汉市,黄陂区
天河街道卫生室门诊部,医疗保健,综合医院,114.219031,30.80361,湖北省,武汉市,黄陂区
人民医院健康管理联合体,医疗保健,综合医院,114.219481,30.803404,湖北省,武汉市,黄陂区
前川街理林社区,医疗保健,综合医院,114.377699,30.863331,湖北省,武汉市,黄陂区
前川街前川社区卫生运营服务站,医疗保健,综合医院,114.380919,30.867784,湖北省,武汉市,黄陂区
前川街东寺社区卫生运营服务站,医疗保健,综合医院,114.38588,30.876903,湖北省,武汉市,黄陂区
前川街康乐社区卫生运营服务站,医疗保健,综合医院,114.368381,30.864096,湖北省,武汉市,黄陂区
中医院新区分院,医疗保健,综合医院,114.372297,30.882689,湖北省,武汉市,黄陂区
疼痛康复联盟医院,医疗保健,综合医院,114.812059,30.846615,湖北省,武汉市,新洲区
中医医院住院部,医疗保健,综合医院,114.805691,30.851954,湖北省,武汉市,新洲区
中医医院门诊住院综合楼,医疗保健,综合医院,114.804444,30.851991,湖北省,武汉市,新洲区
武汉本祥中医医院,医疗保健,综合医院,114.813876,30.856306,湖北省,武汉市,新洲区
三店街卫生室,医疗保健,综合医院,114.792967,30.929627,湖北省,武汉市,新洲区
湖北供销三店庄稼医院,医疗保健,综合医院,114.796594,30.927558,湖北省,武汉市,新洲区
人民医院放疗中心,医疗保健,综合医院,114.36928,30.887106,湖北省,武汉市,黄陂区
人民医院,医疗保健,综合医院,114.370637,30.887588,湖北省,武汉市,黄陂区
人民医院外科楼,医疗保健,综合医院,114.370272,30.887586,湖北省,武汉市,黄陂区
人民医院胸痛中心,医疗保健,综合医院,114.370511,30.888946,湖北省,武汉市,黄陂区
人民医院内科住院大楼,医疗保健,综合医院,114.371357,30.887636,湖北省,武汉市,黄陂区
人民医院急诊,医疗保健,综合医院,114.371508,30.888467,湖北省,武汉市,黄陂区
人民医院门诊,医疗保健,综合医院,114.372246,30.888727,湖北省,武汉市,黄陂区
李家集街中心卫生室,医疗保健,综合医院,114.235174,31.013823,湖北省,武汉市,黄陂区
中医医院,医疗保健,综合医院,114.076237,30.30088,湖北省,武汉市,汉南区
安康社区敬老院,医疗保健,综合医院,114.084026,30.322791,湖北省,武汉市,汉南区
沌口社区卫生中心,医疗保健,综合医院,114.191455,30.459282,湖北省,武汉市,蔡甸区
薛峰社区卫生中心,医疗保健,综合医院,114.094525,30.460295,湖北省,武汉市,蔡甸区
五和中医院,医疗保健,综合医院,114.125505,30.46543,湖北省,武汉市,蔡甸区
奓山街卫生室,医疗保健,综合医院,114.010328,30.448907,湖北省,武汉市,蔡甸区
武汉九康医院,医疗保健,综合医院,114.052578,30.451808,湖北省,武汉市,蔡甸区
武汉名逸医院,医疗保健,综合医院,114.156383,30.497374,湖北省,武汉市,蔡甸区
普仁医院医联体,医疗保健,综合医院,114.157183,30.498081000000003,湖北省,武汉市,蔡甸区
东园中西医结合医院健康体检中心,医疗保健,综合医院,114.15687,30.497633,湖北省,武汉市,蔡甸区
东风阳光城社区卫生运营服务站,医疗保健,综合医院,114.156787,30.497893,湖北省,武汉市,蔡甸区
三好中医馆,医疗保健,综合医院,114.182168,30.518865,湖北省,武汉市,蔡甸区
江汉大学医院,医疗保健,综合医院,114.163248,30.509079,湖北省,武汉市,蔡甸区
琴断口街陶家岭社区卫生运营服务站,医疗保健,综合医院,114.192022,30.542768,湖北省,武汉市,汉阳区
汉阳医院新天分院,医疗保健,综合医院,114.132799,30.553126,湖北省,武汉市,蔡甸区
新天医院,医疗保健,综合医院,114.132795,30.552774,湖北省,武汉市,蔡甸区
同济医院,医疗保健,综合医院,114.112291,30.547222,湖北省,武汉市,蔡甸区
华中科技大学同济医院女值班室,医疗保健,综合医院,114.113877,30.548788,湖北省,武汉市,蔡甸区
华中科技大学同济医院护士长办公室,医疗保健,综合医院,114.113431,30.547445,湖北省,武汉市,蔡甸区
华中科技大学同济医学院附属同济医院,医疗保健,综合医院,114.113673,30.547924,湖北省,武汉市,蔡甸区
华中科技大学同济医院院区办公室,医疗保健,综合医院,114.114543,30.548803,湖北省,武汉市,蔡甸区
侨亚馨语康复医院,医疗保健,综合医院,114.115421,30.550156,湖北省,武汉市,蔡甸区
古田街古南社区卫生运营服务站,医疗保健,综合医院,114.185272,30.589317,湖北省,武汉市,硚口区
古田医院,医疗保健,综合医院,114.191955,30.594028,湖北省,武汉市,硚口区
古田街社区卫生中心,医疗保健,综合医院,114.19211,30.593912,湖北省,武汉市,硚口区
武汉送子鸟不孕症医院反复自然流产与精准保胎陈建明团队独立工作室,医疗保健,综合医院,114.191407,30.601196,湖北省,武汉市,硚口区
武汉明州康复医院,医疗保健,综合医院,114.192656,30.603657,湖北省,武汉市,硚口区
第一医院,医疗保健,综合医院,114.165169,30.612731,湖北省,武汉市,硚口区
公共卫生中心,医疗保健,综合医院,114.165029,30.612956,湖北省,武汉市,硚口区
易家街社区卫生中心,医疗保健,综合医院,114.164608,30.612147,湖北省,武汉市,硚口区
慈惠街卫生室,医疗保健,综合医院,114.123007,30.597206,湖北省,武汉市,东西湖区
慈惠街社区卫生中心,医疗保健,综合医院,114.122638,30.597195,湖北省,武汉市,东西湖区
长青街卫生室,医疗保健,综合医院,114.133252,30.614815,湖北省,武汉市,东西湖区
长青街卫生室门诊,医疗保健,综合医院,114.132865,30.615312,湖北省,武汉市,东西湖区
蔡甸街卫生室新农分院,医疗保健,综合医院,114.072205,30.563021,湖北省,武汉市,蔡甸区
中医医院,医疗保健,综合医院,114.027424,30.577047,湖北省,武汉市,蔡甸区
中医医院儿科门诊,医疗保健,综合医院,114.027322,30.577201,湖北省,武汉市,蔡甸区
中医医院住院部,医疗保健,综合医院,114.027149,30.576852,湖北省,武汉市,蔡甸区
中医院发热门诊,医疗保健,综合医院,114.027992,30.577,湖北省,武汉市,蔡甸区
第三人民医院,医疗保健,综合医院,114.031287,30.646856,湖北省,武汉市,东西湖区
走马岭街中心卫生室,医疗保健,综合医院,114.032063,30.646799,湖北省,武汉市,东西湖区
武汉燕岭医院,医疗保健,综合医院,113.983234,30.682016,湖北省,武汉市,东西湖区
妇幼保健医院,医疗保健,综合医院,114.133417,30.627453,湖北省,武汉市,东西湖区
中医医院,医疗保健,综合医院,114.133424,30.626188000000003,湖北省,武汉市,东西湖区
中医医院住院部,医疗保健,综合医院,114.133637,30.626318,湖北省,武汉市,东西湖区
吴家山街社区卫生中心住院部,医疗保健,综合医院,114.132764,30.625937,湖北省,武汉市,东西湖区
吴家山街社区卫生中心核酸采样点,医疗保健,综合医院,114.133447,30.625993,湖北省,武汉市,东西湖区
易家街竹叶海社区卫生运营服务站,医疗保健,综合医院,114.15461,30.622149,湖北省,武汉市,硚口区
武汉唐人生生医院,医疗保健,综合医院,114.144415,30.63655,湖北省,武汉市,东西湖区
径河街海景北村社区卫生运营服务站,医疗保健,综合医院,114.144731,30.640221,湖北省,武汉市,东西湖区
武汉太康医院,医疗保健,综合医院,114.152902,30.636931,湖北省,武汉市,东西湖区
太康医院,医疗保健,综合医院,114.154155,30.637236,湖北省,武汉市,东西湖区
武汉同人康中医医院,医疗保健,综合医院,114.151006,30.650375,湖北省,武汉市,东西湖区
金银湖街第二社区卫生中心,医疗保健,综合医院,114.170739,30.664404,湖北省,武汉市,东西湖区
金银湖街第二社区卫生中心核酸采样点,医疗保健,综合医院,114.170664,30.663918,湖北省,武汉市,东西湖区
中医医院,医疗保健,综合医院,114.317277,30.342881,湖北省,武汉市,江夏区
湖北中医药大学教学医院,医疗保健,综合医院,114.317412,30.342629,湖北省,武汉市,江夏区
纸坊街龙井社区卫生运营服务站,医疗保健,综合医院,114.321919,30.346437,湖北省,武汉市,江夏区
武汉民泰医院,医疗保健,综合医院,114.328948,30.349776,湖北省,武汉市,江夏区
纸坊街社区卫生中心,医疗保健,综合医院,114.31964,30.35342,湖北省,武汉市,江夏区
武汉大学中南医院医疗联合体医院,医疗保健,综合医院,114.319668,30.353856,湖北省,武汉市,江夏区
武汉大学城医院,医疗保健,综合医院,114.311133,30.413878,湖北省,武汉市,江夏区
中医院城北华街分院,医疗保健,综合医院,114.321653,30.357215,湖北省,武汉市,江夏区
花山社区卫生运营服务站,医疗保健,综合医院,114.329035,30.359259,湖北省,武汉市,江夏区
纸坊街文苑社区卫生运营服务站,医疗保健,综合医院,114.317899,30.360989,湖北省,武汉市,江夏区
第一人民医院住院楼,医疗保健,综合医院,114.320174,30.371356,湖北省,武汉市,江夏区
湖北美术学院藏龙岛校区医院,医疗保健,综合医院,114.415715,30.390692,湖北省,武汉市,江夏区
武汉设计工程学院卫生所,医疗保健,综合医院,114.410848,30.404859,湖北省,武汉市,江夏区
湖北经济学院医院,医疗保健,综合医院,114.429304,30.417066,湖北省,武汉市,江夏区
龙城社区卫生中心急诊,医疗保健,综合医院,114.379965,30.46341,湖北省,武汉市,江夏区
龙城社区卫生中心口腔科,医疗保健,综合医院,114.378698,30.463888,湖北省,武汉市,江夏区
关东街龙城社区卫生中心核酸采样点,医疗保健,综合医院,114.378991,30.463691,湖北省,武汉市,江夏区
佛祖岭南湖社区卫生运营服务站,医疗保健,综合医院,114.377973,30.4649,湖北省,武汉市,江夏区
保利心语社区卫生运营服务站,医疗保健,综合医院,114.325465,30.474118,湖北省,武汉市,洪山区
武汉亚心总医院住院部1号楼,医疗保健,综合医院,114.203879,30.501069,湖北省,武汉市,汉阳区
武汉亚心总医院,医疗保健,综合医院,114.203557,30.500753,湖北省,武汉市,汉阳区
四新街社区卫生中心澜菲溪岸社区预防接种点,医疗保健,综合医院,114.211251,30.511494,湖北省,武汉市,汉阳区
成宝社区卫生站,医疗保健,综合医院,114.309962,30.498928,湖北省,武汉市,洪山区
南湖街华锦社区卫生运营服务站,医疗保健,综合医院,114.310686,30.504122,湖北省,武汉市,武昌区
华锦社区卫生运营服务站成人预防接种门诊,医疗保健,综合医院,114.310769,30.50373,湖北省,武汉市,武昌区
南湖街华锦社区卫生运营服务站狂犬病暴露预防处置门诊,医疗保健,综合医院,114.310554,30.503635,湖北省,武汉市,武昌区
列电社区卫生运营服务站,医疗保健,综合医院,114.294537,30.507021,湖北省,武汉市,洪山区
池阳社区卫生中心,医疗保健,综合医院,114.314338,30.504725,湖北省,武汉市,武昌区
武汉兰湖医院,医疗保健,综合医院,114.314312,30.50948,湖北省,武汉市,武昌区
南湖街社区卫生中心,医疗保健,综合医院,114.317086,30.513042,湖北省,武汉市,武昌区
南湖街社区卫生中心妇幼保健部,医疗保健,综合医院,114.316322,30.512801000000003,湖北省,武汉市,武昌区
洲头街崇善社区卫生运营服务站,医疗保健,综合医院,114.257198,30.525024,湖北省,武汉市,汉阳区
武汉桥机康泰综合医院,医疗保健,综合医院,114.25874,30.527723,湖北省,武汉市,汉阳区
洲头街社区卫生中心,医疗保健,综合医院,114.256912,30.529679,湖北省,武汉市,汉阳区
鹦鹉街社区卫生中心钢管社区卫生服务站,医疗保健,综合医院,114.258692,30.531788,湖北省,武汉市,汉阳区
人民医院双向转诊医院,医疗保健,综合医院,114.309836,30.535111,湖北省,武汉市,武昌区
人民医院,医疗保健,综合医院,114.302912,30.535952,湖北省,武汉市,武昌区
人民医院主院区生殖与儿童中心住院部,医疗保健,综合医院,114.303091,30.535624,湖北省,武汉市,武昌区
武汉大学人民医院乳腺甲状腺中心,医疗保健,综合医院,114.304291,30.53629,湖北省,武汉市,武昌区
武汉大学人民医院精神卫生中心,医疗保健,综合医院,114.298012,30.537455,湖北省,武汉市,武昌区
人民医院主院区临床心理科精神科一病区,医疗保健,综合医院,114.29769,30.537946,湖北省,武汉市,武昌区
人民医院精神医学科一病区,医疗保健,综合医院,114.29795,30.538278,湖北省,武汉市,武昌区
黄鹤楼街社区卫生中心,医疗保健,综合医院,114.301155,30.538178,湖北省,武汉市,武昌区
第三医院,医疗保健,综合医院,114.302242,30.540313,湖北省,武汉市,武昌区
第三医院,医疗保健,综合医院,114.302312,30.539816,湖北省,武汉市,武昌区
武汉大学同仁医院医疗美容科,医疗保健,综合医院,114.301834,30.540275,湖北省,武汉市,武昌区
首义路街社区卫生中心,医疗保健,综合医院,114.31018,30.537798,湖北省,武汉市,武昌区
第三医院医联体医院,医疗保健,综合医院,114.310157,30.537344,湖北省,武汉市,武昌区
惠民医院,医疗保健,综合医院,114.309442,30.537337,湖北省,武汉市,武昌区
长湖社区卫生运营服务站,医疗保健,综合医院,114.309052,30.537871,湖北省,武汉市,武昌区
中南财经政法大学首义校区医院,医疗保健,综合医院,114.314835,30.537827,湖北省,武汉市,武昌区
首义路街中南财经政法大学首义校区社区卫生运营服务站,医疗保健,综合医院,114.315002,30.53813,湖北省,武汉市,武昌区
武警总队医院,医疗保健,综合医院,114.314007,30.545094,湖北省,武汉市,武昌区
总队医院发热门诊,医疗保健,综合医院,114.313992,30.543607,湖北省,武汉市,武昌区
武警医院医学整形美容专科,医疗保健,综合医院,114.314336,30.543854,湖北省,武汉市,武昌区
武汉汉方药谷中医院,医疗保健,综合医院,114.30559,30.545952,湖北省,武汉市,武昌区
粮道街社区卫生中心,医疗保健,综合医院,114.304663,30.547055,湖北省,武汉市,武昌区
中医院门诊部,医疗保健,综合医院,114.310115,30.549965,湖北省,武汉市,武昌区
中医院花园山院区,医疗保健,综合医院,114.309589,30.551069,湖北省,武汉市,武昌区
中医院煎药室,医疗保健,综合医院,114.309159,30.550148,湖北省,武汉市,武昌区
中医院花园山院区住院部,医疗保健,综合医院,114.310018,30.550256,湖北省,武汉市,武昌区
湖北中医药大学附属医院,医疗保健,综合医院,114.309876,30.549792,湖北省,武汉市,武昌区
中医院花园山院区磁共振室,医疗保健,综合医院,114.310383,30.550724,湖北省,武汉市,武昌区
中医院花园山新门诊大楼,医疗保健,综合医院,114.308831,30.550795,湖北省,武汉市,武昌区
中医院花园山院区核酸采样点,医疗保健,综合医院,114.310067,30.549887,湖北省,武汉市,武昌区
湖北中医药大学堂医院,医疗保健,综合医院,114.31546,30.549748,湖北省,武汉市,武昌区
中华路街西城壕社区卫生运营服务站,医疗保健,综合医院,114.304533,30.55144,湖北省,武汉市,武昌区
中医院花园山院区门诊部,医疗保健,综合医院,114.309405,30.549774,湖北省,武汉市,武昌区
湖北中医学院附属医院行政办公大楼,医疗保健,综合医院,114.308797,30.550296000000003,湖北省,武汉市,武昌区
中医院针灸科,医疗保健,综合医院,114.308376,30.54996,湖北省,武汉市,武昌区
中医院康复医学科按摩科,医疗保健,综合医院,114.308498,30.550431,湖北省,武汉市,武昌区
中医院按摩科康复医学科,医疗保健,综合医院,114.308711,30.549911,湖北省,武汉市,武昌区
药局中医院,医疗保健,综合医院,114.294886,30.547885,湖北省,武汉市,武昌区
武汉道一堂中医医院,医疗保健,综合医院,114.295299,30.547782,湖北省,武汉市,武昌区
鹦鹉街社区卫生中心公共卫生科,医疗保健,综合医院,114.267332,30.539837,湖北省,武汉市,汉阳区
第五医院鹦鹉街社区卫生中心医疗联合体,医疗保健,综合医院,114.268489,30.539591,湖北省,武汉市,汉阳区
武汉友好医院,医疗保健,综合医院,114.266948,30.542143,湖北省,武汉市,汉阳区
武汉友好医院定点妇科中心体检,医疗保健,综合医院,114.266272,30.542464,湖北省,武汉市,汉阳区
金药堂中医院门诊部,医疗保健,综合医院,114.267977,30.542798,湖北省,武汉市,汉阳区
第五医院住院部2区,医疗保健,综合医院,114.271781,30.548056,湖北省,武汉市,汉阳区
第五医院智能化免煎中药店,医疗保健,综合医院,114.271642,30.547997,湖北省,武汉市,汉阳区
第五医院,医疗保健,综合医院,114.271689,30.548114,湖北省,武汉市,汉阳区
江汉大学附属第二医院,医疗保健,综合医院,114.271577,30.547813,湖北省,武汉市,汉阳区
铁路中心医院,医疗保健,综合医院,114.274978,30.549943,湖北省,武汉市,汉阳区
建桥街社区卫生中心公共卫生科,医疗保健,综合医院,114.275467,30.551676,湖北省,武汉市,汉阳区
建桥街社区卫生中心,医疗保健,综合医院,114.275549,30.551502000000003,湖北省,武汉市,汉阳区
第五医院住院部3区,医疗保健,综合医院,114.271366,30.546785,湖北省,武汉市,汉阳区
第五医院SPECT中心,医疗保健,综合医院,114.270873,30.546374,湖北省,武汉市,汉阳区
建桥街河泊社区卫生运营服务站,医疗保健,综合医院,114.269941,30.545644,湖北省,武汉市,汉阳区
第五医院体检中心,医疗保健,综合医院,114.27073,30.548126,湖北省,武汉市,汉阳区
洲头街倒南社区卫生运营服务站,医疗保健,综合医院,114.251445,30.521627,湖北省,武汉市,汉阳区
洲头街红建社区卫生运营服务站,医疗保健,综合医院,114.254397,30.526976,湖北省,武汉市,汉阳区
五里墩街社区卫生中心,医疗保健,综合医院,114.253774,30.541009,湖北省,武汉市,汉阳区
五琴里社区卫生运营服务站,医疗保健,综合医院,114.251674,30.553079,湖北省,武汉市,汉阳区
社区卫生运营服务站,医疗保健,综合医院,114.206867,30.549023,湖北省,武汉市,汉阳区
洪山街北港社区卫生运营服务站,医疗保健,综合医院,114.328298,30.499392,湖北省,武汉市,洪山区
南湖街水域天际社区卫生服物站,医疗保健,综合医院,114.324182,30.501186,湖北省,武汉市,武昌区
方桂园社区卫生运营服务站,医疗保健,综合医院,114.362467,30.504641,湖北省,武汉市,洪山区
仁安医院中医科,医疗保健,综合医院,114.368821,30.507045,湖北省,武汉市,洪山区
泰斗中医院,医疗保健,综合医院,114.364676,30.508498,湖北省,武汉市,洪山区
荣军医院门诊部,医疗保健,综合医院,114.377557,30.505807,湖北省,武汉市,洪山区
武汉虎泉医院门诊,医疗保健,综合医院,114.369121,30.514041,湖北省,武汉市,洪山区
珞南街社区卫生中心,医疗保健,综合医院,114.349009,30.516467,湖北省,武汉市,洪山区
中医医院,医疗保健,综合医院,114.349392,30.516884,湖北省,武汉市,洪山区
武汉理工大学医院,医疗保健,综合医院,114.351803,30.520207,湖北省,武汉市,洪山区
理工大社区卫生中心,医疗保健,综合医院,114.352337,30.519184000000003,湖北省,武汉市,洪山区
明家老铺中医院,医疗保健,综合医院,114.350875,30.519546,湖北省,武汉市,洪山区
石牌园社区卫生运营服务站,医疗保健,综合医院,114.340004,30.518173,湖北省,武汉市,洪山区
南湖街社区卫生健康管理中心,医疗保健,综合医院,114.316631,30.51309,湖北省,武汉市,武昌区
普航医院,医疗保健,综合医院,114.318664,30.516586,湖北省,武汉市,武昌区
洪山街井岗社区卫生运营服务站,医疗保健,综合医院,114.318285,30.517478,湖北省,武汉市,洪山区
八一社区卫生运营服务站,医疗保健,综合医院,114.388801,30.493974,湖北省,武汉市,洪山区
武汉东湖新技术开发区关东街道第二社区卫生中心,医疗保健,综合医院,114.388981,30.493653,湖北省,武汉市,洪山区
中南民族大学医院,医疗保健,综合医院,114.397412,30.488027,湖北省,武汉市,洪山区
武汉东湖高新民康医院,医疗保健,综合医院,114.403508,30.487773,湖北省,武汉市,洪山区
关山街七一七社区卫生中心,医疗保健,综合医院,114.400178,30.499142,湖北省,武汉市,洪山区
武汉洪山德佑中医院,医疗保健,综合医院,114.400146,30.49758,湖北省,武汉市,洪山区
卓刀泉街关西社区卫生运营服务站,医疗保健,综合医院,114.387818,30.49916,湖北省,武汉市,洪山区
关山街第一社区卫生中心,医疗保健,综合医院,114.411563,30.49383,湖北省,武汉市,洪山区
关一社区卫生中心,医疗保健,综合医院,114.410453,30.493207,湖北省,武汉市,洪山区
第三医院,医疗保健,综合医院,114.410786,30.498553,湖北省,武汉市,洪山区
第三医院,医疗保健,综合医院,114.411396,30.498942,湖北省,武汉市,洪山区
第三医院,医疗保健,综合医院,114.411874,30.49934,湖北省,武汉市,洪山区
急救中心胸痛急救站,医疗保健,综合医院,114.411008,30.498951,湖北省,武汉市,洪山区
第三医院光谷院区急诊,医疗保健,综合医院,114.411485,30.498902,湖北省,武汉市,洪山区
第三医院光谷院区住院部,医疗保健,综合医院,114.411187,30.499051,湖北省,武汉市,洪山区
关东街第二社区卫生中心,医疗保健,综合医院,114.426756,30.505529,湖北省,武汉市,洪山区
关东街第二社区卫生中心狂犬病预防处置门诊,医疗保健,综合医院,114.427753,30.505181,湖北省,武汉市,洪山区
关山口社区卫生运营服务站,医疗保健,综合医院,114.428092,30.506718,湖北省,武汉市,洪山区
荣军医院,医疗保健,综合医院,114.377142,30.505623,湖北省,武汉市,洪山区
荣军医院儿童康复部,医疗保健,综合医院,114.378043,30.506405,湖北省,武汉市,洪山区
荣军医院综合楼,医疗保健,综合医院,114.377934,30.506091,湖北省,武汉市,洪山区
荣军医院老年病科,医疗保健,综合医院,114.378028,30.505831,湖北省,武汉市,洪山区
中医院门诊部,医疗保健,综合医院,114.407214,30.507386,湖北省,武汉市,洪山区
中医院急诊,医疗保健,综合医院,114.407378,30.50586,湖北省,武汉市,洪山区
中医院光谷院区门诊,医疗保健,综合医院,114.407133,30.506998,湖北省,武汉市,洪山区
中医院健康管理中心,医疗保健,综合医院,114.407793,30.507498,湖北省,武汉市,洪山区
武汉科技大学附属天佑医院,医疗保健,综合医院,114.326157,30.524973,湖北省,武汉市,武昌区
医保定点医疗机构,医疗保健,综合医院,114.341952,30.526788000000003,湖北省,武汉市,武昌区
珞南街洪珞社区卫生运营服务站,医疗保健,综合医院,114.344016,30.526477,湖北省,武汉市,洪山区
武锅医院,医疗保健,综合医院,114.336475,30.52882,湖北省,武汉市,武昌区
武汉华夏医院,医疗保健,综合医院,114.333898,30.53208,湖北省,武汉市,武昌区
中共武汉华夏医院委员会,医疗保健,综合医院,114.334413,30.531592,湖北省,武汉市,武昌区
中国人民解放军中部战区总医院综合楼,医疗保健,综合医院,114.342791,30.531064,湖北省,武汉市,武昌区
中国人民解放军中部战区总医院门诊楼,医疗保健,综合医院,114.344677,30.530694,湖北省,武汉市,武昌区
门诊部,医疗保健,综合医院,114.344277,30.529891,湖北省,武汉市,武昌区
中国人民解放军中部战区总医院急诊,医疗保健,综合医院,114.344888,30.530558,湖北省,武汉市,武昌区
中国人民解放军中部战区总医院胸痛中心,医疗保健,综合医院,114.344309,30.530182,湖北省,武汉市,武昌区
感染内科门诊,医疗保健,综合医院,114.34508,30.52966,湖北省,武汉市,武昌区
中国人民解放军中部战区总医院,医疗保健,综合医院,114.34477,30.53137,湖北省,武汉市,武昌区
湖北大中中医院,医疗保健,综合医院,114.322864,30.530819,湖北省,武汉市,武昌区
新农合转诊医院,医疗保健,综合医院,114.322932,30.530979,湖北省,武汉市,武昌区
大东门社区卫生运营服务站,医疗保健,综合医院,114.320092,30.532117,湖北省,武汉市,武昌区
推拿医院,医疗保健,综合医院,114.330283,30.530515,湖北省,武汉市,武昌区
武汉艺萌康复医院,医疗保健,综合医院,114.325882,30.534195,湖北省,武汉市,武昌区
残联医疗康复定点医院,医疗保健,综合医院,114.32558,30.533635,湖北省,武汉市,武昌区
马应龙肛肠医院,医疗保健,综合医院,114.327415,30.537409,湖北省,武汉市,武昌区
武汉理工大学医院,医疗保健,综合医院,114.347924,30.523423,湖北省,武汉市,洪山区
武汉理工大学马房山校区西院校医院,医疗保健,综合医院,114.346992,30.522876,湖北省,武汉市,洪山区
武汉大学口腔医学院五诊室,医疗保健,综合医院,114.365377,30.522187,湖北省,武汉市,洪山区
湖北中医药高等专科学院附属医院,医疗保健,综合医院,114.366389,30.521667,湖北省,武汉市,洪山区
广埠屯社区卫生运营服务站,医疗保健,综合医院,114.363263,30.525008,湖北省,武汉市,洪山区
第七医院急诊,医疗保健,综合医院,114.331488,30.541378,湖北省,武汉市,武昌区
基本医疗救助定点医院,医疗保健,综合医院,114.330373,30.541535,湖北省,武汉市,武昌区
第七医院发热门诊,医疗保健,综合医院,114.330816,30.541165,湖北省,武汉市,武昌区
第七医院肠道门诊,医疗保健,综合医院,114.330853,30.540964,湖北省,武汉市,武昌区
第七医院,医疗保健,综合医院,114.331662,30.542453,湖北省,武汉市,武昌区
中南路街第一社区卫生中心,医疗保健,综合医院,114.321163,30.543686,湖北省,武汉市,武昌区
中医医院,医疗保健,综合医院,114.317606,30.543527,湖北省,武汉市,武昌区
中华路社区卫生中心,医疗保健,综合医院,114.317302,30.543348,湖北省,武汉市,武昌区
中华路街社区卫生中心,医疗保健,综合医院,114.31786,30.543686,湖北省,武汉市,武昌区
武汉科技大学附属天佑医院洪山分院,医疗保健,综合医院,114.340614,30.540027,湖北省,武汉市,武昌区
中医院省直分院,医疗保健,综合医院,114.345567,30.543996,湖北省,武汉市,武昌区
华中科技大学同济省直医院,医疗保健,综合医院,114.345343,30.543918,湖北省,武汉市,武昌区
直属机关医院,医疗保健,综合医院,114.345231,30.543781,湖北省,武汉市,武昌区
水果湖街省直社区卫生中心,医疗保健,综合医院,114.345743,30.54435,湖北省,武汉市,武昌区
水果湖街道省直社区卫生中心,医疗保健,综合医院,114.345875,30.543543000000003,湖北省,武汉市,武昌区
姚家岭社区卫生运营服务站,医疗保健,综合医院,114.335373,30.552205,湖北省,武汉市,武昌区
瑞华医院,医疗保健,综合医院,114.34941,30.566028,湖北省,武汉市,武昌区
美吉医院,医疗保健,综合医院,114.362404,30.579001,湖北省,武汉市,洪山区
医保定点医疗机构,医疗保健,综合医院,114.369758,30.579945,湖北省,武汉市,武昌区
武汉瑞华医院直属门诊部,医疗保健,综合医院,114.366843,30.57982,湖北省,武汉市,洪山区
武汉广华医院,医疗保健,综合医院,114.363145,30.581883,湖北省,武汉市,洪山区
梨园街东山亭社区卫生运营服务站,医疗保健,综合医院,114.366241,30.586121,湖北省,武汉市,洪山区
武汉五洲整形外科医院,医疗保健,综合医院,114.351633,30.584053,湖北省,武汉市,洪山区
湖大医院,医疗保健,综合医院,114.329192,30.576043,湖北省,武汉市,武昌区
湖北大学医院,医疗保健,综合医院,114.32922,30.576381,湖北省,武汉市,武昌区
徐家棚街湖北大学社区卫生运营服务站,医疗保健,综合医院,114.329163,30.576291,湖北省,武汉市,武昌区
紫荆医院内科楼,医疗保健,综合医院,114.32869,30.580234,湖北省,武汉市,武昌区
武汉紫荆医院住院部,医疗保健,综合医院,114.328897,30.580431,湖北省,武汉市,武昌区
武汉紫荆医院,医疗保健,综合医院,114.327901,30.581358,湖北省,武汉市,武昌区
武汉紫荆医院体检中心,医疗保健,综合医院,114.32817,30.58147,湖北省,武汉市,武昌区
武汉紫荆医院门诊部,医疗保健,综合医院,114.327632,30.581205,湖北省,武汉市,武昌区
紫荆医院综合大楼,医疗保健,综合医院,114.328281,30.581477000000003,湖北省,武汉市,武昌区
华润武钢总医院洪山中西医结合门诊部,医疗保健,综合医院,114.380898,30.605203000000003,湖北省,武汉市,洪山区
御医堂爱心医院,医疗保健,综合医院,114.404698,30.618792,湖北省,武汉市,洪山区
现代花园社区卫生运营服务站,医疗保健,综合医院,114.407956,30.619129,湖北省,武汉市,青山区
社区卫生中心,医疗保健,综合医院,114.392001,30.616962,湖北省,武汉市,洪山区
青山区钢花村街社区卫生中心,医疗保健,综合医院,114.39208,30.617694,湖北省,武汉市,洪山区
武钢二医院,医疗保健,综合医院,114.380009,30.616165,湖北省,武汉市,洪山区
武汉京都结石病医院,医疗保健,综合医院,114.346195,30.594056,湖北省,武汉市,武昌区
梨园街社区卫生中心,医疗保健,综合医院,114.349058,30.587357,湖北省,武汉市,洪山区
武汉升华蛇疗中医院,医疗保健,综合医院,114.348503,30.589988,湖北省,武汉市,洪山区
和平街欧洲花园社区卫生运营服务站,医疗保健,综合医院,114.34786,30.590701,湖北省,武汉市,洪山区
杨园街柴东社区卫生运营服务站,医疗保健,综合医院,114.348945,30.598797,湖北省,武汉市,武昌区
钢都冶建花园社区卫生运营服务站,医疗保健,综合医院,114.375019,30.613739,湖北省,武汉市,青山区
第九医院,医疗保健,综合医院,114.360648,30.619158,湖北省,武汉市,青山区
琴断口街七里晴川社区卫生运营服务站,医疗保健,综合医院,114.223527,30.555483,湖北省,武汉市,汉阳区
第一医院汉阳门诊,医疗保健,综合医院,114.215938,30.565444,湖北省,武汉市,汉阳区
中医医院,医疗保健,综合医院,114.213487,30.565403,湖北省,武汉市,汉阳区
知音东苑社区运营服务站,医疗保健,综合医院,114.214671,30.567883,湖北省,武汉市,汉阳区
慈安医院,医疗保健,综合医院,114.211648,30.56833,湖北省,武汉市,汉阳区
慈安医院医疗救助服务运营中心,医疗保健,综合医院,114.212028,30.568132,湖北省,武汉市,汉阳区
玫瑰苑社区卫生运营服务站,医疗保健,综合医院,114.204834,30.566085,湖北省,武汉市,汉阳区
五麟里社区卫生运营服务站,医疗保健,综合医院,114.230451,30.554928,湖北省,武汉市,汉阳区
第三人民医院,医疗保健,综合医院,114.253087,30.568894,湖北省,武汉市,硚口区
武汉大学附属中山医院,医疗保健,综合医院,114.255423,30.569337,湖北省,武汉市,硚口区
第三人民医院行政办公大楼,医疗保健,综合医院,114.253886,30.568642,湖北省,武汉市,硚口区
中山医院行政办公大楼,医疗保健,综合医院,114.254176,30.568367,湖北省,武汉市,硚口区
荣华街社区卫生中心,医疗保健,综合医院,114.255581,30.570535,湖北省,武汉市,硚口区
荣华街社区卫生中心公共卫生科,医疗保健,综合医院,114.254336,30.570410000000003,湖北省,武汉市,硚口区
第三人民医院卒中中心,医疗保健,综合医院,114.254926,30.569625,湖北省,武汉市,硚口区
中山医院体检中心,医疗保健,综合医院,114.254393,30.569627,湖北省,武汉市,硚口区
第三人民医院胸痛中心,医疗保健,综合医院,114.252502,30.569423,湖北省,武汉市,硚口区
第三人民医院张建军独立工作室,医疗保健,综合医院,114.252849,30.569628,湖北省,武汉市,硚口区
第三人民医院本部门诊,医疗保健,综合医院,114.253708,30.568884,湖北省,武汉市,硚口区
第三人民医院后勤楼,医疗保健,综合医院,114.253385,30.568531,湖北省,武汉市,硚口区
第三人民医院本部诚信住院楼,医疗保健,综合医院,114.254171,30.56845,湖北省,武汉市,硚口区
第三人民医院本部住院部,医疗保健,综合医院,114.253276,30.569158,湖北省,武汉市,硚口区
第三人民医院本部急诊,医疗保健,综合医院,114.252698,30.569408000000003,湖北省,武汉市,硚口区
汉水桥街社区卫生中心南区,医疗保健,综合医院,114.242225,30.573686,湖北省,武汉市,硚口区
宏昇中医院,医疗保健,综合医院,114.251604,30.574335,湖北省,武汉市,硚口区
东方阳光中西医结合医院,医疗保健,综合医院,114.249034,30.576773,湖北省,武汉市,硚口区
汉兴养老阳光医院,医疗保健,综合医院,114.249242,30.576163,湖北省,武汉市,硚口区
汉水桥街社区卫生中心,医疗保健,综合医院,114.250889,30.577956,湖北省,武汉市,硚口区
武汉仁爱医院,医疗保健,综合医院,114.244036,30.574731,湖北省,武汉市,硚口区
三六O四医院,医疗保健,综合医院,114.241594,30.576709,湖北省,武汉市,硚口区
三六〇四医院,医疗保健,综合医院,114.241061,30.576526,湖北省,武汉市,硚口区
第三人民医院医联体医院,医疗保健,综合医院,114.244011,30.575103,湖北省,武汉市,硚口区
武汉仁爱医院甲状腺乳腺专科,医疗保健,综合医院,114.243351,30.575539000000003,湖北省,武汉市,硚口区
武汉仁爱医院预防接种门诊,医疗保健,综合医院,114.243488,30.575364,湖北省,武汉市,硚口区
三六零四卫生运营服务站,医疗保健,综合医院,114.240754,30.576538000000003,湖北省,武汉市,硚口区
城镇职工医保定点医院,医疗保健,综合医院,114.253156,30.579502,湖北省,武汉市,硚口区
宝丰街宝丰社区卫生运营服务站,医疗保健,综合医院,114.253837,30.579022,湖北省,武汉市,硚口区
同济医学院社区卫生运营服务站,医疗保健,综合医院,114.254653,30.581366,湖北省,武汉市,硚口区
国营七五二医院,医疗保健,综合医院,114.225576,30.583658,湖北省,武汉市,硚口区
宗关街新合社区卫生运营服务站,医疗保健,综合医院,114.227644,30.583412000000003,湖北省,武汉市,硚口区
武汉福康医养融合医院,医疗保健,综合医院,114.217952,30.583442,湖北省,武汉市,硚口区
宗关街社区卫生中心,医疗保健,综合医院,114.223973,30.583842,湖北省,武汉市,硚口区
武汉瑞祥中医骨科医院,医疗保健,综合医院,114.22111,30.585285,湖北省,武汉市,硚口区
武汉瑞祥中西医结合医院,医疗保健,综合医院,114.220679,30.585188,湖北省,武汉市,硚口区
汉正街药王社区卫生运营服务站,医疗保健,综合医院,114.280843,30.568638,湖北省,武汉市,硚口区
第四医院,医疗保健,综合医院,114.270887,30.566409,湖北省,武汉市,硚口区
武汉普爱医院东院区,医疗保健,综合医院,114.267095,30.566015,湖北省,武汉市,硚口区
第四医院惠康楼,医疗保健,综合医院,114.266171,30.566446,湖北省,武汉市,硚口区
第四医院,医疗保健,综合医院,114.267296,30.565971,湖北省,武汉市,硚口区
申新医院,医疗保健,综合医院,114.266459,30.568432,湖北省,武汉市,硚口区
第四医院,医疗保健,综合医院,114.267613,30.566804,湖北省,武汉市,硚口区
汉中街社区卫生中心,医疗保健,综合医院,114.266833,30.567693,湖北省,武汉市,硚口区
汉中街社区卫生中心,医疗保健,综合医院,114.260773,30.568763,湖北省,武汉市,硚口区
汉中街社区卫生中心,医疗保健,综合医院,114.26043,30.568855000000003,湖北省,武汉市,硚口区
商职医院住院部,医疗保健,综合医院,114.291545,30.568533,湖北省,武汉市,江汉区
武汉航运医院,医疗保健,综合医院,114.293593,30.570497000000003,湖北省,武汉市,江汉区
武汉商职医院门诊,医疗保健,综合医院,114.290822,30.568583,湖北省,武汉市,江汉区
驾照换证定点体检医院,医疗保健,综合医院,114.293486,30.56997,湖北省,武汉市,江汉区
武汉航运医院发热门诊,医疗保健,综合医院,114.293775,30.570089,湖北省,武汉市,江汉区
民族街社区卫生中心,医疗保健,综合医院,114.288651,30.573341,湖北省,武汉市,江汉区
民族街社区卫生中心中医科,医疗保健,综合医院,114.289377,30.574412,湖北省,武汉市,江汉区
民权街社区卫生中心,医疗保健,综合医院,114.289157,30.576416,湖北省,武汉市,江汉区
中心医院行政办公大楼,医疗保健,综合医院,114.294384,30.579616,湖北省,武汉市,江岸区
第二医院,医疗保健,综合医院,114.295137,30.579484,湖北省,武汉市,江岸区
中心医院南京路院区仁济楼,医疗保健,综合医院,114.295333,30.580568,湖北省,武汉市,江岸区
中心医院南京路院区检验科,医疗保健,综合医院,114.294778,30.579931,湖北省,武汉市,江岸区
中心医院甲状腺外科2病区,医疗保健,综合医院,114.294706,30.580737,湖北省,武汉市,江岸区
中心医院病理科,医疗保健,综合医院,114.294727,30.580457000000003,湖北省,武汉市,江岸区
中心医院仁济楼,医疗保健,综合医院,114.295688,30.580947,湖北省,武汉市,江岸区
中心医院,医疗保健,综合医院,114.29463,30.581591,湖北省,武汉市,江岸区
中心医院,医疗保健,综合医院,114.294888,30.582175,湖北省,武汉市,江岸区
华中科技大学同济医学院附属武汉中心医院,医疗保健,综合医院,114.294907,30.581577,湖北省,武汉市,江岸区
中心医院急诊,医疗保健,综合医院,114.295825,30.582061,湖北省,武汉市,江岸区
武汉仁和医院,医疗保健,综合医院,114.262057,30.572842,湖北省,武汉市,硚口区
武汉弘医堂中医医院,医疗保健,综合医院,114.266146,30.576003,湖北省,武汉市,硚口区
武汉欣悦妇科医院党支部,医疗保健,综合医院,114.270029,30.577272,湖北省,武汉市,江汉区
武汉欣悦医院,医疗保健,综合医院,114.27012,30.57719,湖北省,武汉市,江汉区
同济医院第二门诊部,医疗保健,综合医院,114.261093,30.578339,湖北省,武汉市,硚口区
同济医院儿科,医疗保健,综合医院,114.260751,30.578829,湖北省,武汉市,硚口区
宝丰街社区卫生中心,医疗保健,综合医院,114.263246,30.576989,湖北省,武汉市,硚口区
同济医院发热疱疹门诊,医疗保健,综合医院,114.260298,30.578112,湖北省,武汉市,硚口区
第一医院,医疗保健,综合医院,114.272201,30.571879,湖北省,武汉市,硚口区
第一医院,医疗保健,综合医院,114.27231,30.571113,湖北省,武汉市,硚口区
湖北中医药大学附属中西医结合医院,医疗保健,综合医院,114.272945,30.571968,湖北省,武汉市,硚口区
第一医院中西医结合医院,医疗保健,综合医院,114.272209,30.572209,湖北省,武汉市,硚口区
市一医院体检中心,医疗保健,综合医院,114.272341,30.571945000000003,湖北省,武汉市,硚口区
第一医院整形外科门诊,医疗保健,综合医院,114.271744,30.572893,湖北省,武汉市,硚口区
第一医院外科楼,医疗保健,综合医院,114.271304,30.572757,湖北省,武汉市,硚口区
第一医院2号楼,医疗保健,综合医院,114.272507,30.573381,湖北省,武汉市,硚口区
第一医院肿瘤三病区,医疗保健,综合医院,114.272803,30.572302,湖北省,武汉市,硚口区
第一医院胸痛中心,医疗保健,综合医院,114.271155,30.573045,湖北省,武汉市,硚口区
第一医院卒中中心,医疗保健,综合医院,114.271214,30.573067,湖北省,武汉市,硚口区
第一医院,医疗保健,综合医院,114.271013,30.57266,湖北省,武汉市,硚口区
中心医院,医疗保健,综合医院,114.273944,30.574659,湖北省,武汉市,硚口区
第一医院急诊部,医疗保健,综合医院,114.271318,30.572789,湖北省,武汉市,硚口区
六角亭街社区卫生中心康复部,医疗保健,综合医院,114.273809,30.574056,湖北省,武汉市,硚口区
六角亭街社区卫生中心,医疗保健,综合医院,114.272955,30.574074,湖北省,武汉市,硚口区
满春街社区卫生中心,医疗保健,综合医院,114.28179,30.572081,湖北省,武汉市,江汉区
前进街社区卫生中心,医疗保健,综合医院,114.282399,30.578002,湖北省,武汉市,江汉区
前进街社区卫生中心核酸采样点,医疗保健,综合医院,114.282949,30.577898,湖北省,武汉市,江汉区
WUHANUNIONHOSPITAL,医疗保健,综合医院,114.273557,30.582501,湖北省,武汉市,江汉区
武汉协和医院针灸科,医疗保健,综合医院,114.274595,30.583052,湖北省,武汉市,江汉区
华中科技大学同济医学院附属协和医院创伤中心,医疗保健,综合医院,114.274728,30.5829,湖北省,武汉市,江汉区
武汉亚洲心脏病医院门诊部,医疗保健,综合医院,114.282439,30.582451,湖北省,武汉市,江汉区
武汉同济医院后勤楼,医疗保健,综合医院,114.259324,30.57977,湖北省,武汉市,硚口区
同济医院28号楼,医疗保健,综合医院,114.258888,30.579042,湖北省,武汉市,硚口区
华中科技大学同济医学院附属同济医院营养部,医疗保健,综合医院,114.258026,30.5798,湖北省,武汉市,硚口区
华中科技大学同济医学院附属同济医院泌尿外科微创中心,医疗保健,综合医院,114.258787,30.579938,湖北省,武汉市,硚口区
华中科技大学同济医学院附属同济医院303栋,医疗保健,综合医院,114.259044,30.580369,湖北省,武汉市,硚口区
华中科技大学同济医学院附属同济医院综合医疗楼,医疗保健,综合医院,114.257339,30.579883,湖北省,武汉市,硚口区
华中科技大学同济医学院附属同济医院外科大楼,医疗保健,综合医院,114.258931,30.579586,湖北省,武汉市,硚口区
华中科技大学同济医学院附属同济医院主院区急诊,医疗保健,综合医院,114.26009,30.579597,湖北省,武汉市,硚口区
武汉华美整形外科医院腋臭科,医疗保健,综合医院,114.255932,30.578651,湖北省,武汉市,硚口区
华中科技大学同济医学院附属同济医院主院区第三门诊,医疗保健,综合医院,114.259546,30.57956,湖北省,武汉市,硚口区
武汉同济医院胸痛中心,医疗保健,综合医院,114.259481,30.578988,湖北省,武汉市,硚口区
同济医院综合医疗楼9号楼,医疗保健,综合医院,114.259201,30.579458,湖北省,武汉市,硚口区
华中科技大学同济医学院附属同济医院后勤楼22号楼,医疗保健,综合医院,114.259389,30.57946,湖北省,武汉市,硚口区
华中科技大学同济医学院附属同济医院行政楼,医疗保健,综合医院,114.258142,30.58007,湖北省,武汉市,硚口区
华中科技大学同济医学院附属同济医院,医疗保健,综合医院,114.25997,30.579814,湖北省,武汉市,硚口区
同济医院,医疗保健,综合医院,114.261859,30.57931,湖北省,武汉市,硚口区
同济医科大学康复医学科,医疗保健,综合医院,114.260454,30.579514000000003,湖北省,武汉市,硚口区
华中科技大学同济医学院附属同济医院3号楼,医疗保健,综合医院,114.259964,30.579879,湖北省,武汉市,硚口区
武汉同济医院热力中心,医疗保健,综合医院,114.261608,30.579567,湖北省,武汉市,硚口区
华中科技大学同济医学院附属同济医院主院区感染科肝病门诊,医疗保健,综合医院,114.261808,30.578624,湖北省,武汉市,硚口区
同济医院病理研究所病理会诊中心,医疗保健,综合医院,114.260775,30.580458,湖北省,武汉市,硚口区
华中科技大学同济医学院附属同济医院PET中心27号楼,医疗保健,综合医院,114.260228,30.579479,湖北省,武汉市,硚口区
华中科技大学同济医学院附属同济医院主院区肝病肠道门诊,医疗保健,综合医院,114.262947,30.579018,湖北省,武汉市,硚口区
华中科技大学同济医学院附属同济医院2号楼,医疗保健,综合医院,114.261044,30.580258,湖北省,武汉市,硚口区
华中科技大学同济医学院附属协和医院PET中心,医疗保健,综合医院,114.263013,30.580925,湖北省,武汉市,硚口区
天一中医医院,医疗保健,综合医院,114.264583,30.580361,湖北省,武汉市,硚口区
张强医生集团,医疗保健,综合医院,114.264986,30.581865,湖北省,武汉市,硚口区
华中科技大学同济医学院医院,医疗保健,综合医院,114.259914,30.58577,湖北省,武汉市,硚口区
华中科技大学同济医学院医院医疗美容,医疗保健,综合医院,114.260319,30.58599,湖北省,武汉市,硚口区
康复推拿医院,医疗保健,综合医院,114.264123,30.589522,湖北省,武汉市,江汉区
万松街社区卫生中心北区,医疗保健,综合医院,114.268691,30.592491000000003,湖北省,武汉市,江汉区
万松街社区卫生中心,医疗保健,综合医院,114.268878,30.59292,湖北省,武汉市,江汉区
万松街社区卫生中心南区,医疗保健,综合医院,114.268291,30.592512,湖北省,武汉市,江汉区
万松街社区卫生计生服务运营中心,医疗保健,综合医院,114.268392,30.592119,湖北省,武汉市,江汉区
中西医结合医院江北分部,医疗保健,综合医院,114.278469,30.589371,湖北省,武汉市,江岸区
新华街社区卫生中心,医疗保健,综合医院,114.280398,30.588721,湖北省,武汉市,江汉区
中医医院台北院区,医疗保健,综合医院,114.281685,30.597164000000003,湖北省,武汉市,江岸区
北湖街社区卫生中心,医疗保健,综合医院,114.27443,30.600488,湖北省,武汉市,江汉区
中医药大学附属国医医院,医疗保健,综合医院,114.298088,30.588807,湖北省,武汉市,江岸区
中医医院急诊,医疗保健,综合医院,114.298224,30.588420000000003,湖北省,武汉市,江岸区
中医医院住院部,医疗保健,综合医院,114.29805,30.58832,湖北省,武汉市,江岸区
中医医院卒中中心,医疗保健,综合医院,114.29801,30.588927,湖北省,武汉市,江岸区
急救中心中医医院急救站,医疗保健,综合医院,114.297313,30.588391,湖北省,武汉市,江岸区
中医医院门诊部,医疗保健,综合医院,114.298047,30.588472,湖北省,武汉市,江岸区
中医医院国家中医重点专科项目急诊科,医疗保健,综合医院,114.297581,30.58807,湖北省,武汉市,江岸区
市第八医院,医疗保健,综合医院,114.295518,30.591242,湖北省,武汉市,江岸区
湖北中医药大学教学医院,医疗保健,综合医院,114.295799,30.590692,湖北省,武汉市,江岸区
中西医结合医院中山分部,医疗保健,综合医院,114.297009,30.589056,湖北省,武汉市,江岸区
中西医结合医院中山分院住院部,医疗保健,综合医院,114.29738,30.588649,湖北省,武汉市,江岸区
车站街社区卫生中心,医疗保健,综合医院,114.295862,30.591425,湖北省,武汉市,江岸区
车站街社区卫生中心,医疗保健,综合医院,114.297644,30.594297,湖北省,武汉市,江岸区
球场街北社区卫生中心,医疗保健,综合医院,114.293925,30.594344,湖北省,武汉市,江岸区
球场街北区社区卫生中心,医疗保健,综合医院,114.29239,30.591948,湖北省,武汉市,江岸区
球场街社区卫生中心中西医结合部,医疗保健,综合医院,114.292319,30.591343,湖北省,武汉市,江岸区
球场北社区卫生中心,医疗保健,综合医院,114.293482,30.594236,湖北省,武汉市,江岸区
西马街社区卫生中心,医疗保健,综合医院,114.286664,30.593862,湖北省,武汉市,江岸区
一元街社区卫生中心,医疗保健,综合医院,114.303308,30.59526,湖北省,武汉市,江岸区
第八医院体检中心,医疗保健,综合医院,114.307629,30.60187,湖北省,武汉市,江岸区
四唯街社区卫生中心,医疗保健,综合医院,114.308001,30.60178,湖北省,武汉市,江岸区
肛肠医院,医疗保健,综合医院,114.306086,30.603247,湖北省,武汉市,江岸区
第八医院医保办公室,医疗保健,综合医院,114.305831,30.603743,湖北省,武汉市,江岸区
第八医院肛肠病综合大楼,医疗保健,综合医院,114.305827,30.603466,湖北省,武汉市,江岸区
四唯街社区卫生中心公共卫生科,医疗保健,综合医院,114.306075,30.601212,湖北省,武汉市,江岸区
第八医院科教楼,医疗保健,综合医院,114.306413,30.601575,湖北省,武汉市,江岸区
第八医院门诊部,医疗保健,综合医院,114.305849,30.603321,湖北省,武汉市,江岸区
第八医院核酸采样点,医疗保健,综合医院,114.306576,30.603639,湖北省,武汉市,江岸区
武汉金药堂中医院,医疗保健,综合医院,114.290254,30.597643,湖北省,武汉市,江岸区
一元街社区卫生中心公共卫生科,医疗保健,综合医院,114.301919,30.59554,湖北省,武汉市,江岸区
劳动街社区卫生中心,医疗保健,综合医院,114.294542,30.601626000000003,湖北省,武汉市,江岸区
江汉大学附属医院,医疗保健,综合医院,114.289507,30.600441,湖北省,武汉市,江岸区
第六医院急诊,医疗保健,综合医院,114.290313,30.599635,湖北省,武汉市,江岸区
第六医院门诊,医疗保健,综合医院,114.289749,30.600481,湖北省,武汉市,江岸区
第六医院住院一部,医疗保健,综合医院,114.290507,30.6001,湖北省,武汉市,江岸区
第六医院住院二部,医疗保健,综合医院,114.289554,30.5997,湖北省,武汉市,江岸区
第六医院外科楼,医疗保健,综合医院,114.290113,30.600236,湖北省,武汉市,江岸区
第六医院胸痛中心,医疗保健,综合医院,114.289635,30.600108,湖北省,武汉市,江岸区
第六医院卒中中心,医疗保健,综合医院,114.289462,30.600048,湖北省,武汉市,江岸区
第六医院创伤中心,医疗保健,综合医院,114.289629,30.600228,湖北省,武汉市,江岸区
第六医院肺结节诊治中心,医疗保健,综合医院,114.289403,30.600265,湖北省,武汉市,江岸区
第六医院西楼,医疗保健,综合医院,114.289803,30.600205,湖北省,武汉市,江岸区
第六医院,医疗保健,综合医院,114.290617,30.599899,湖北省,武汉市,江岸区
第六医院内科楼,医疗保健,综合医院,114.291078,30.599856000000003,湖北省,武汉市,江岸区
武汉儿童医院,医疗保健,综合医院,114.288205,30.60357,湖北省,武汉市,江岸区
妇女儿童医疗保健中心急诊,医疗保健,综合医院,114.287479,30.603049,湖北省,武汉市,江岸区
省儿童医疗中心,医疗保健,综合医院,114.287698,30.601539,湖北省,武汉市,江岸区
武汉儿童医院妇幼综合大楼,医疗保健,综合医院,114.289106,30.603105,湖北省,武汉市,江岸区
妇女儿童医疗保健中心妇保楼住院部,医疗保健,综合医院,114.288286,30.602729,湖北省,武汉市,江岸区
妇女儿童医疗保健中心门诊部,医疗保健,综合医院,114.287818,30.602909,湖北省,武汉市,江岸区
妇女儿童医疗保健中心,医疗保健,综合医院,114.28793,30.6035,湖北省,武汉市,江岸区
儿童医院外科楼,医疗保健,综合医院,114.287902,30.604242,湖北省,武汉市,江岸区
儿童医院内科楼,医疗保健,综合医院,114.289145,30.604476,湖北省,武汉市,江岸区
长江航运总医院胸痛中心,医疗保健,综合医院,114.287464,30.605109,湖北省,武汉市,江岸区
武汉轻工大学附属医院,医疗保健,综合医院,114.287348,30.605213,湖北省,武汉市,江岸区
水上紧急医学救援医院,医疗保健,综合医院,114.287884,30.605589,湖北省,武汉市,江岸区
妇女儿童医疗保健中心内科楼住院部,医疗保健,综合医院,114.288936,30.603969000000003,湖北省,武汉市,江岸区
妇女儿童医疗保健中心外科楼住院部,医疗保健,综合医院,114.287972,30.604114,湖北省,武汉市,江岸区
长江航运总医院,医疗保健,综合医院,114.287346,30.606804,湖北省,武汉市,江岸区
劳动街花惠社区卫生运营服务站,医疗保健,综合医院,114.288501,30.606222,湖北省,武汉市,江岸区
长江航运总医院门诊楼,医疗保健,综合医院,114.287553,30.605465,湖北省,武汉市,江岸区
第八医院,医疗保健,综合医院,114.305336,30.603617,湖北省,武汉市,江岸区
市八医院,医疗保健,综合医院,114.306051,30.604003,湖北省,武汉市,江岸区
第八医院住院部,医疗保健,综合医院,114.305858,30.603337,湖北省,武汉市,江岸区
第八医院挂号处,医疗保健,综合医院,114.306219,30.604191,湖北省,武汉市,江岸区
第八医院急诊科,医疗保健,综合医院,114.30616,30.603171,湖北省,武汉市,江岸区
九万方社区卫生运营服务站,医疗保健,综合医院,114.293151,30.618179,湖北省,武汉市,江岸区
天美乳腺医院爱乳俱乐部,医疗保健,综合医院,114.269377,30.605476,湖北省,武汉市,江汉区
武汉天美乳腺病专科医院,医疗保健,综合医院,114.269333,30.605092,湖北省,武汉市,江汉区
新华医院高压氧,医疗保健,综合医院,114.273716,30.607474,湖北省,武汉市,江汉区
武汉麻塘中医院,医疗保健,综合医院,114.28338,30.608419,湖北省,武汉市,江汉区
中西医结合医院,医疗保健,综合医院,114.273764,30.607752,湖北省,武汉市,江汉区
红十字会医院中医科,医疗保健,综合医院,114.272759,30.613941,湖北省,武汉市,江汉区
红十字会医院住院部,医疗保健,综合医院,114.272789,30.613613,湖北省,武汉市,江汉区
红十字会医院急诊,医疗保健,综合医院,114.272931,30.614266,湖北省,武汉市,江汉区
红十字会医院,医疗保健,综合医院,114.272698,30.614199,湖北省,武汉市,江汉区
红十字会医院胸痛中心,医疗保健,综合医院,114.272439,30.614621000000003,湖北省,武汉市,江汉区
花桥街第一社区卫生中心,医疗保健,综合医院,114.280976,30.614989,湖北省,武汉市,江岸区
长江医院,医疗保健,综合医院,114.28662,30.618737,湖北省,武汉市,江岸区
花桥街第二社区卫生计生服务运营中心,医疗保健,综合医院,114.285587,30.618367000000003,湖北省,武汉市,江岸区
长江医院核酸采样点,医疗保健,综合医院,114.286665,30.618577,湖北省,武汉市,江岸区
长江医院医务处,医疗保健,综合医院,114.2866,30.618756,湖北省,武汉市,江岸区
长江水利委员会长江医院门诊部,医疗保健,综合医院,114.286473,30.619194,湖北省,武汉市,江岸区
武汉济民中老年医院,医疗保健,综合医院,114.260675,30.614606,湖北省,武汉市,江汉区
中共武汉阿波罗医院支部委员会,医疗保健,综合医院,114.266236,30.617083,湖北省,武汉市,江汉区
武汉景程医院,医疗保健,综合医院,114.219976,30.601508,湖北省,武汉市,硚口区
常青医院,医疗保健,综合医院,114.24208,30.606629,湖北省,武汉市,江汉区
常青街社区卫生中心公共卫生科,医疗保健,综合医院,114.24099,30.606372,湖北省,武汉市,江汉区
夏小中医院,医疗保健,综合医院,114.252205,30.613536,湖北省,武汉市,江汉区
仁民医院,医疗保健,综合医院,114.197315,30.605362,湖北省,武汉市,硚口区
仁民医院门诊部,医疗保健,综合医院,114.197551,30.604871,湖北省,武汉市,硚口区
融济中医院,医疗保健,综合医院,114.198323,30.60544,湖北省,武汉市,硚口区
融济中医院门诊,医疗保健,综合医院,114.198872,30.605868,湖北省,武汉市,硚口区
长丰街社区卫生中心,医疗保健,综合医院,114.217181,30.606088,湖北省,武汉市,硚口区
中山医院协作医院,医疗保健,综合医院,114.216877,30.605206,湖北省,武汉市,硚口区
武汉玄乐中医医院,医疗保健,综合医院,114.213692,30.611552,湖北省,武汉市,硚口区
中西医结合医院民航分院,医疗保健,综合医院,114.239845,30.628023,湖北省,武汉市,江汉区
中西医结合医院直办,医疗保健,综合医院,114.239422,30.627979,湖北省,武汉市,江汉区
汉兴街第二社区卫生中心,医疗保健,综合医院,114.239085,30.627931,湖北省,武汉市,江汉区
怡和医院24小时急诊服务,医疗保健,综合医院,114.247102,30.622654,湖北省,武汉市,江汉区
怡和医院,医疗保健,综合医院,114.246977,30.622321,湖北省,武汉市,江汉区
杨汊湖社区卫生运营服务站,医疗保健,综合医院,114.254516,30.634557,湖北省,武汉市,江汉区
中心医院后湖院区急诊,医疗保健,综合医院,114.265445,30.627612000000003,湖北省,武汉市,江汉区
中心医院后湖院区门诊,医疗保健,综合医院,114.265186,30.627345,湖北省,武汉市,江汉区
汉兴街社区卫生中心北区,医疗保健,综合医院,114.260341,30.631767,湖北省,武汉市,江汉区
二七街操场社区卫生运营服务站,医疗保健,综合医院,114.315135,30.626875,湖北省,武汉市,江岸区
武汉仁博医院,医疗保健,综合医院,114.299098,30.634679,湖北省,武汉市,江岸区
金桥社区卫生中心,医疗保健,综合医院,114.300503,30.637525,湖北省,武汉市,江岸区
后湖街世纪家园社区卫生运营服务站,医疗保健,综合医院,114.293906,30.641317,湖北省,武汉市,江岸区
武汉德福医院,医疗保健,综合医院,114.300766,30.64144,湖北省,武汉市,江岸区
百步亭社区卫生中心,医疗保健,综合医院,114.316289,30.641717,湖北省,武汉市,江岸区
春林医院,医疗保健,综合医院,114.302872,30.641908,湖北省,武汉市,江岸区
百步亭医院,医疗保健,综合医院,114.286811,30.655356,湖北省,武汉市,江岸区
新村街社区卫生中心,医疗保健,综合医院,114.316835,30.629667,湖北省,武汉市,江岸区
红卫路街碧园社区卫生运营服务站,医疗保健,综合医院,114.371111,30.628016,湖北省,武汉市,青山区
第九医院,医疗保健,综合医院,114.380245,30.624198,湖北省,武汉市,青山区
武汉大学人民医院青山总医院,医疗保健,综合医院,114.380697,30.623928,湖北省,武汉市,青山区
第九医院体检中心,医疗保健,综合医院,114.380553,30.624831,湖北省,武汉市,青山区
冶金街通达社区卫生运营服务站,医疗保健,综合医院,114.398393,30.622860000000003,湖北省,武汉市,青山区
冶金街新安社区卫生运营服务站,医疗保健,综合医院,114.400712,30.623931,湖北省,武汉市,青山区
武钢总医院发热门诊,医疗保健,综合医院,114.402735,30.632221,湖北省,武汉市,青山区
武钢总医院中医楼,医疗保健,综合医院,114.404264,30.633345,湖北省,武汉市,青山区
武钢总医院礼堂,医疗保健,综合医院,114.40307,30.632799,湖北省,武汉市,青山区
华润武钢总医院中医科,医疗保健,综合医院,114.404013,30.633311000000003,湖北省,武汉市,青山区
武钢总医院7号中医楼,医疗保健,综合医院,114.403296,30.632825,湖北省,武汉市,青山区
华润武钢总医院行政办公大楼,医疗保健,综合医院,114.401716,30.632889,湖北省,武汉市,青山区
华润武钢总医院感染性疾病科,医疗保健,综合医院,114.402461,30.632597,湖北省,武汉市,青山区
新桥社区卫生运营服务站,医疗保健,综合医院,114.394701,30.633019,湖北省,武汉市,青山区
新沟桥街社区卫生中心,医疗保健,综合医院,114.397048,30.633331,湖北省,武汉市,青山区
新沟桥街社区卫生中心老院区核酸采样点,医疗保健,综合医院,114.397291,30.633608,湖北省,武汉市,青山区
普仁医院急诊,医疗保健,综合医院,114.38056,30.630238,湖北省,武汉市,青山区
普仁医院卒中中心,医疗保健,综合医院,114.380793,30.630028,湖北省,武汉市,青山区
武汉百沐仁和中医医院,医疗保健,综合医院,114.378212,30.628845,湖北省,武汉市,青山区
武汉科技大学附属普仁医院急诊,医疗保健,综合医院,114.380614,30.63004,湖北省,武汉市,青山区
和平社区卫生运营服务站,医疗保健,综合医院,114.382331,30.630658,湖北省,武汉市,青山区
普仁医院,医疗保健,综合医院,114.381055,30.630391000000003,湖北省,武汉市,青山区
普仁医院,医疗保健,综合医院,114.380366,30.631665,湖北省,武汉市,青山区
红钢城街社区卫生中心,医疗保健,综合医院,114.401548,30.637363,湖北省,武汉市,青山区
武湖街大木村健康运营服务站,医疗保健,综合医院,114.41823,30.703149,湖北省,武汉市,黄陂区
军安社区卫生运营服务站,医疗保健,综合医院,114.575434,30.652565,湖北省,武汉市,新洲区
武汉仁生医院,医疗保健,综合医院,114.567523,30.653098,湖北省,武汉市,新洲区
潘家墩社区卫生运营服务站,医疗保健,综合医院,114.563676,30.654035,湖北省,武汉市,新洲区
阳逻街卫生室,医疗保健,综合医院,114.573636,30.667603,湖北省,武汉市,新洲区
阳逻街卫生室门诊大楼,医疗保健,综合医院,114.573209,30.667748,湖北省,武汉市,新洲区
朝家山社区卫生运营服务站,医疗保健,综合医院,114.569458,30.669201,湖北省,武汉市,新洲区
社区卫生服务,医疗保健,综合医院,114.570144,30.668118,湖北省,武汉市,新洲区
皮防医院,医疗保健,综合医院,114.377789,30.874177,湖北省,武汉市,黄陂区
黄陂爱民医院,医疗保健,综合医院,114.378192,30.877673,湖北省,武汉市,黄陂区
黄陂卫校附属医院,医疗保健,综合医院,114.378674,30.87738,湖北省,武汉市,黄陂区
慈爱医院,医疗保健,综合医院,114.382607,30.879867,湖北省,武汉市,黄陂区
前川街卫生室,医疗保健,综合医院,114.370309,30.869574,湖北省,武汉市,黄陂区
第二中医医院,医疗保健,综合医院,114.376704,30.872117,湖北省,武汉市,黄陂区
中医医院门诊部,医疗保健,综合医院,114.376857,30.871913000000003,湖北省,武汉市,黄陂区
环城社区卫生中心发热诊室,医疗保健,综合医院,114.371548,30.876222,湖北省,武汉市,黄陂区
前川街环城社区卫生中心,医疗保健,综合医院,114.372004,30.876652,湖北省,武汉市,黄陂区
卓万尔医院,医疗保健,综合医院,114.367452,30.872463,湖北省,武汉市,黄陂区
环城新村社区卫生运营服务站,医疗保健,综合医院,114.364105,30.881721,湖北省,武汉市,黄陂区
武汉黄陂百川医院,医疗保健,综合医院,114.36628,30.883406,湖北省,武汉市,黄陂区
新村社区卫生运营服务站中医室,医疗保健,综合医院,114.363823,30.881612,湖北省,武汉市,黄陂区
前川街新村社区卫生运营服务站,医疗保健,综合医院,114.363536,30.881283,湖北省,武汉市,黄陂区
双柳街卫生室大埠门诊部,医疗保健,综合医院,114.839934,30.642512,湖北省,武汉市,新洲区
凤凰台社区卫生运营服务站,医疗保健,综合医院,114.804059,30.83127,湖北省,武汉市,新洲区
邾城街黄茂社区卫生运营服务站,医疗保健,综合医院,114.804818,30.833295,湖北省,武汉市,新洲区
武汉,医疗保健,综合医院,114.808003,30.832611,湖北省,武汉市,新洲区
方舱医院,医疗保健,综合医院,114.808467,30.837553,湖北省,武汉市,新洲区
邾城街卫生室,医疗保健,综合医院,114.806593,30.839417,湖北省,武汉市,新洲区
邾城街东城尚品社区卫生运营服务站,医疗保健,综合医院,114.81753,30.838555,湖北省,武汉市,新洲区
人民医院,医疗保健,综合医院,114.803176,30.842685,湖北省,武汉市,新洲区
人民医院住院部,医疗保健,综合医院,114.804069,30.842345,湖北省,武汉市,新洲区
人民医院门诊部,医疗保健,综合医院,114.803447,30.843443,湖北省,武汉市,新洲区
邾城街蔡濠社区卫生运营服务站,医疗保健,综合医院,114.804034,30.848537,湖北省,武汉市,新洲区
中医医院,医疗保健,综合医院,114.805217,30.852145,湖北省,武汉市,新洲区
发热门诊,医疗保健,综合医院,114.804877,30.852168,湖北省,武汉市,新洲区
邾城街社区卫生中心,医疗保健,综合医院,114.799483,30.842609000000003,湖北省,武汉市,新洲区
红十字会医院,医疗保健,综合医院,114.796839,30.843411,湖北省,武汉市,新洲区
基层医院特色结石科,医疗保健,综合医院,114.796955,30.843347,湖北省,武汉市,新洲区
邾城街第二社区卫生中心发热诊室,医疗保健,综合医院,114.796903,30.843211,湖北省,武汉市,新洲区
邾城街第二社区卫生中心,医疗保健,综合医院,114.797107,30.843188,湖北省,武汉市,新洲区
红十字会医院北城分院,医疗保健,综合医院,114.801274,30.846141000000003,湖北省,武汉市,新洲区
红十字会医院,医疗保健,综合医院,114.076931,30.307585,湖北省,武汉市,汉南区
人民医院,医疗保健,综合医院,114.07374,30.313232,湖北省,武汉市,汉南区
物堪院卫生所,医疗保健,综合医院,114.150289,30.488693,湖北省,武汉市,蔡甸区
沌阳街沌阳社区卫生中心,医疗保健,综合医院,114.150537,30.489047,湖北省,武汉市,蔡甸区
沌阳社区卫生中心公共卫生科,医疗保健,综合医院,114.150381,30.48855,湖北省,武汉市,蔡甸区
新民社区卫生中心,医疗保健,综合医院,114.180889,30.511541,湖北省,武汉市,蔡甸区
碧湖社区卫生运营服务站,医疗保健,综合医院,114.153813,30.504472,湖北省,武汉市,蔡甸区
长丰街天勤城市花园社区卫生运营服务站,医疗保健,综合医院,114.192976,30.609387,湖北省,武汉市,硚口区
皇宅建筑医院,医疗保健,综合医院,114.15576,30.609334,湖北省,武汉市,东西湖区
新农合医疗定点医院,医疗保健,综合医院,114.149657,30.619795,湖北省,武汉市,东西湖区
三民社区卫生运营服务站,医疗保健,综合医院,114.146068,30.615934,湖北省,武汉市,东西湖区
武汉仲景东西湖中医医院,医疗保健,综合医院,114.149208,30.619465,湖北省,武汉市,东西湖区
武汉济和医院,医疗保健,综合医院,114.03233,30.571802,湖北省,武汉市,蔡甸区
红十字会医院,医疗保健,综合医院,114.037298,30.57158,湖北省,武汉市,蔡甸区
蔡甸街社区卫生中心,医疗保健,综合医院,114.037185,30.572325,湖北省,武汉市,蔡甸区
人民医院感染性疾病科,医疗保健,综合医院,114.036028,30.582685,湖北省,武汉市,蔡甸区
金域采样点后官湖医院,医疗保健,综合医院,114.029031,30.582104,湖北省,武汉市,蔡甸区
马号社区卫生运营服务站,医疗保健,综合医院,114.021251,30.581882,湖北省,武汉市,蔡甸区
蔡甸街龚家岭社区卫生运营服务站,医疗保健,综合医院,114.027162,30.585843,湖北省,武汉市,蔡甸区
吴家山长青社区卫生运营服务站,医疗保健,综合医院,114.130883,30.622382,湖北省,武汉市,东西湖区
吴家山街田园社区卫生运营服务站,医疗保健,综合医院,114.146229,30.624005,湖北省,武汉市,东西湖区
吴家山梦佳里社区卫生运营服务站,医疗保健,综合医院,114.138404,30.630699,湖北省,武汉市,东西湖区
光谷医院,医疗保健,综合医院,114.401162,30.504491,湖北省,武汉市,洪山区
中医院,医疗保健,综合医院,114.407807,30.505669,湖北省,武汉市,洪山区
中医院光谷院区住院部,医疗保健,综合医院,114.407278,30.506500000000003,湖北省,武汉市,洪山区
武汉大学口腔医院,医疗保健,综合医院,114.332154,30.535616,湖北省,武汉市,武昌区
妇幼保健医院街道口院区急诊,医疗保健,综合医院,114.35168,30.527802,湖北省,武汉市,洪山区
妇幼保健医院街道口院区门诊部,医疗保健,综合医院,114.351463,30.527799,湖北省,武汉市,洪山区
妇幼保健医院街道口院区住院部,医疗保健,综合医院,114.35313,30.527785,湖北省,武汉市,洪山区
武汉汉沙医院,医疗保健,综合医院,114.20735,30.560479,湖北省,武汉市,汉阳区
江汉二桥街汉沙社区卫生运营服务站,医疗保健,综合医院,114.207614,30.560684,湖北省,武汉市,汉阳区
武汉华康医院,医疗保健,综合医院,114.212353,30.56351,湖北省,武汉市,汉阳区
汉正街五彩社区卫生运营服务站,医疗保健,综合医院,114.275519,30.565087,湖北省,武汉市,硚口区
汉正社区卫生中心核酸采样点,医疗保健,综合医院,114.275909,30.569891,湖北省,武汉市,硚口区
水塔街社区卫生中心预防接种门诊,医疗保健,综合医院,114.286533,30.5797,湖北省,武汉市,江汉区
水塔街社区卫生中心,医疗保健,综合医院,114.287104,30.579827,湖北省,武汉市,江汉区
江汉医院,医疗保健,综合医院,114.289922,30.582206,湖北省,武汉市,江岸区
水塔街社区卫生中心,医疗保健,综合医院,114.289479,30.582011,湖北省,武汉市,江汉区
大智街北社区卫生中心,医疗保健,综合医院,114.288717,30.584492,湖北省,武汉市,江岸区
大智街泰宁社区卫生运营服务站,医疗保健,综合医院,114.289381,30.58608,湖北省,武汉市,江岸区
民意街社区卫生中心,医疗保健,综合医院,114.278675,30.576104,湖北省,武汉市,江汉区
中医医院,医疗保健,综合医院,114.297854,30.588505,湖北省,武汉市,江岸区
永清街社区卫生中心卫生科,医疗保健,综合医院,114.309828,30.60581,湖北省,武汉市,江岸区
永清街社区卫生中心,医疗保健,综合医院,114.310175,30.606458,湖北省,武汉市,江岸区
红卫路街园林星城社区卫生运营服务站,医疗保健,综合医院,114.374177,30.627442,湖北省,武汉市,青山区
武汉科技大学德康医院,医疗保健,综合医院,114.293537,30.478502,湖北省,武汉市,洪山区
张家湾街毛坦社区卫生运营服务站,医疗保健,综合医院,114.293586,30.471621000000003,湖北省,武汉市,洪山区
青菱街青江苑社区卫生运营服务站,医疗保健,综合医院,114.247791,30.46343,湖北省,武汉市,洪山区
庙山威鹏医院,医疗保健,综合医院,114.372826,30.401344,湖北省,武汉市,江夏区
庙山威鹏医院鹏威综合门诊部,医疗保健,综合医院,114.372513,30.401012,湖北省,武汉市,江夏区
华中师范大学医院,医疗保健,综合医院,114.361977,30.51962,湖北省,武汉市,洪山区
徐家棚街水岸星城社区卫生运营服务站,医疗保健,综合医院,114.339937,30.57478,湖北省,武汉市,武昌区
水岸星城社区卫生运营服务站预防接种门诊,医疗保健,综合医院,114.339991,30.574755,湖北省,武汉市,武昌区
普爱医院东院区住院楼,医疗保健,综合医院,114.266362,30.565457,湖北省,武汉市,硚口区
武汉景程医院男科门诊,医疗保健,综合医院,114.220263,30.600923,湖北省,武汉市,硚口区
武汉瑞华中医医院姑李路西医内科诊所,医疗保健,综合医院,114.256037,30.645614,湖北省,武汉市,东西湖区
省市新型农村合作医疗定点医院,医疗保健,综合医院,114.28528,30.6233,湖北省,武汉市,江岸区
汉兴街常二社区卫生运营服务站,医疗保健,综合医院,114.258719,30.628911,湖北省,武汉市,江汉区
汉兴街和祥里社区,医疗保健,综合医院,114.261667,30.629674,湖北省,武汉市,江汉区
兴业医院,医疗保健,综合医院,114.295775,30.638376,湖北省,武汉市,江岸区
后湖街惠民社区卫生运营服务站,医疗保健,综合医院,114.307793,30.645266000000003,湖北省,武汉市,江岸区
葛化集团中心医院协作门诊部,医疗保健,综合医院,114.270094,30.640445,湖北省,武汉市,江岸区
武汉大学人民医院人民医院青山医院,医疗保健,综合医院,114.401714,30.637618,湖北省,武汉市,青山区
滠口街道卫生室预防接种门诊,医疗保健,综合医院,114.353975,30.7121,湖北省,武汉市,黄陂区
