名称,大类,中类,经度,纬度,省份,城市,区域
石门小区,商务住宅,住宅区,114.30344,31.146624,湖北省,武汉市,黄陂区
天池雅园,商务住宅,住宅区,114.302442,31.144924,湖北省,武汉市,黄陂区
泥人王村,商务住宅,住宅区,114.212929,31.12525,湖北省,武汉市,黄陂区
双塔社区,商务住宅,住宅区,113.779926,30.235464,湖北省,武汉市,汉南区
纱帽镇东荆街沟北小区,商务住宅,住宅区,113.928867,30.309473,湖北省,武汉市,汉南区
东荆街三眼桥小区,商务住宅,住宅区,113.922183,30.342222,湖北省,武汉市,汉南区
西河公馆,商务住宅,住宅区,113.71958,30.406364,湖北省,武汉市,蔡甸区
香妃湖小区,商务住宅,住宅区,113.951851,30.370611,湖北省,武汉市,蔡甸区
洪北怡康园,商务住宅,住宅区,113.856346,30.368868000000003,湖北省,武汉市,蔡甸区
巨龙社区,商务住宅,住宅区,114.074293,30.754615,湖北省,武汉市,东西湖区
祝杨区,商务住宅,住宅区,114.511812,30.005393,湖北省,武汉市,江夏区
光星二小社区,商务住宅,住宅区,114.365001,30.091311,湖北省,武汉市,江夏区
未来家园现代农业园,商务住宅,住宅区,114.493452,30.123762,湖北省,武汉市,江夏区
乌龙泉小区,商务住宅,住宅区,114.326345,30.259822,湖北省,武汉市,江夏区
乌龙泉社区便民服务运营中心,商务住宅,住宅区,114.325914,30.259784,湖北省,武汉市,江夏区
照耀还建社区,商务住宅,住宅区,114.372542,30.301635,湖北省,武汉市,江夏区
梁湖世家,商务住宅,住宅区,114.428509,30.308742,湖北省,武汉市,江夏区
恒大科技旅游城,商务住宅,住宅区,114.38077,30.309445,湖北省,武汉市,江夏区
大悦城•航天悦府,商务住宅,住宅区,114.697258,30.59729,湖北省,武汉市,新洲区
宝业航天府3期,商务住宅,住宅区,114.69744,30.598465,湖北省,武汉市,新洲区
孔雀城航天府滨江园,商务住宅,住宅区,114.701306,30.601061,湖北省,武汉市,新洲区
花艺新村,商务住宅,住宅区,114.255715,30.438414,湖北省,武汉市,洪山区
绿地大都会,商务住宅,住宅区,114.227675,30.434556,湖北省,武汉市,洪山区
大华公园城市,商务住宅,住宅区,114.221778,30.427427,湖北省,武汉市,洪山区
鄂旅投·书院世家,商务住宅,住宅区,114.253729,30.426867,湖北省,武汉市,洪山区
万科保利理想城市,商务住宅,住宅区,114.218661,30.423548,湖北省,武汉市,洪山区
DE未来港,商务住宅,住宅区,114.242399,30.453879,湖北省,武汉市,洪山区
菱湖美景,商务住宅,住宅区,114.237306,30.442244,湖北省,武汉市,洪山区
十一村一场2期还建房,商务住宅,住宅区,114.233843,30.439799,湖北省,武汉市,洪山区
南益名悦华府,商务住宅,住宅区,114.232369,30.435868,湖北省,武汉市,洪山区
武汉龙泉公寓,商务住宅,住宅区,114.539337,30.384999,湖北省,武汉市,江夏区
龙泉小区,商务住宅,住宅区,114.538942,30.381079,湖北省,武汉市,江夏区
新希望·锦粼九里,商务住宅,住宅区,114.500082,30.449669,湖北省,武汉市,江夏区
黄金堂,商务住宅,住宅区,114.55315,30.454062,湖北省,武汉市,江夏区
豹澥黄金堂小区,商务住宅,住宅区,114.55294,30.453945,湖北省,武汉市,江夏区
葛化街白浒小区,商务住宅,住宅区,114.605663,30.539035,湖北省,武汉市,洪山区
孙庙湾,商务住宅,住宅区,114.633853,30.586475,湖北省,武汉市,新洲区
北湖畔园,商务住宅,住宅区,114.518711,30.596231000000003,湖北省,武汉市,青山区
佳阳·新城港都,商务住宅,住宅区,114.556485,30.675497,湖北省,武汉市,新洲区
瑞达园,商务住宅,住宅区,114.615828,30.784584,湖北省,武汉市,新洲区
毅城达社区,商务住宅,住宅区,114.617547,30.784654,湖北省,武汉市,新洲区
雅郡园,商务住宅,住宅区,114.617012,30.784628,湖北省,武汉市,新洲区
大兰湾,商务住宅,住宅区,114.239719,30.828103,湖北省,武汉市,黄陂区
祁家湾街程力重工汉章湾还建社区,商务住宅,住宅区,114.238802,30.849382,湖北省,武汉市,黄陂区
新童家大湾,商务住宅,住宅区,114.690492,30.719098,湖北省,武汉市,新洲区
联合湾,商务住宅,住宅区,114.752531,30.703772,湖北省,武汉市,新洲区
石兴园,商务住宅,住宅区,114.985138,30.876666,湖北省,武汉市,新洲区
泥金泊湾,商务住宅,住宅区,114.806467,30.809146,湖北省,武汉市,新洲区
细罗家大塘湾,商务住宅,住宅区,114.696834,30.89756,湖北省,武汉市,新洲区
细胡湾,商务住宅,住宅区,114.702878,30.896001,湖北省,武汉市,新洲区
滕榨湾,商务住宅,住宅区,114.725,30.889139,湖北省,武汉市,新洲区
岳并湾,商务住宅,住宅区,114.864037,30.934207,湖北省,武汉市,新洲区
祝福花园,商务住宅,住宅区,114.35487,30.94588,湖北省,武汉市,黄陂区
联合社区,商务住宅,住宅区,114.340124,31.013987,湖北省,武汉市,黄陂区
草原新村,商务住宅,住宅区,114.459483,30.955623,湖北省,武汉市,黄陂区
木兰樾境,商务住宅,住宅区,114.467158,31.07669,湖北省,武汉市,黄陂区
梦里水乡,商务住宅,住宅区,114.475515,31.085588,湖北省,武汉市,黄陂区
四千院,商务住宅,住宅区,114.466263,31.107585,湖北省,武汉市,黄陂区
福兴小区,商务住宅,住宅区,114.463863,31.100134,湖北省,武汉市,黄陂区
斜阳耒筑木兰,商务住宅,住宅区,114.466634,31.106955,湖北省,武汉市,黄陂区
江城木兰湖花园,商务住宅,住宅区,114.472031,31.094274,湖北省,武汉市,黄陂区
长轩岭镇东风新村,商务住宅,住宅区,114.345944,31.081967,湖北省,武汉市,黄陂区
裕和夫子山,商务住宅,住宅区,114.387479,31.13254,湖北省,武汉市,黄陂区
怡山湾小区,商务住宅,住宅区,114.176514,30.157179,湖北省,武汉市,江夏区
港尖社区,商务住宅,住宅区,114.143815,30.228911,湖北省,武汉市,江夏区
金水闸小区,商务住宅,住宅区,114.136241,30.298749,湖北省,武汉市,江夏区
南康小区,商务住宅,住宅区,113.894095,30.269497,湖北省,武汉市,汉南区
湘隆社区,商务住宅,住宅区,113.859646,30.258864000000003,湖北省,武汉市,汉南区
马赛村,商务住宅,住宅区,113.837106,30.482561,湖北省,武汉市,蔡甸区
蒲谭社区西区,商务住宅,住宅区,114.067992,30.401319,湖北省,武汉市,蔡甸区
华润置地公园里,商务住宅,住宅区,114.066984,30.400615,湖北省,武汉市,蔡甸区
蒲潭社区北区,商务住宅,住宅区,114.072734,30.402472,湖北省,武汉市,蔡甸区
龙湖小区,商务住宅,住宅区,114.125071,30.371365,湖北省,武汉市,蔡甸区
武汉碧桂园桂湖映月,商务住宅,住宅区,114.089516,30.355337,湖北省,武汉市,汉南区
江汉山色园,商务住宅,住宅区,114.094774,30.356687,湖北省,武汉市,汉南区
龙湖社区南区,商务住宅,住宅区,114.129324,30.368045,湖北省,武汉市,蔡甸区
金地·长江艺境,商务住宅,住宅区,114.137392,30.381397,湖北省,武汉市,蔡甸区
融创首创国际智慧生态城市江晚庭,商务住宅,住宅区,114.14337,30.383518,湖北省,武汉市,蔡甸区
海伦小镇,商务住宅,住宅区,114.16638,30.412912,湖北省,武汉市,蔡甸区
海伦堡千鹭湾,商务住宅,住宅区,114.166035,30.413884,湖北省,武汉市,蔡甸区
实地君兰汀岸,商务住宅,住宅区,114.16207,30.404969,湖北省,武汉市,蔡甸区
车都春台里,商务住宅,住宅区,114.160597,30.412042,湖北省,武汉市,蔡甸区
北辰经开优+,商务住宅,住宅区,114.148842,30.409455,湖北省,武汉市,蔡甸区
军山新城·春笋,商务住宅,住宅区,114.142229,30.410905,湖北省,武汉市,蔡甸区
佳兆业滨江新城,商务住宅,住宅区,114.144048,30.413635,湖北省,武汉市,蔡甸区
中建壹品澜庭,商务住宅,住宅区,114.144888,30.391899,湖北省,武汉市,蔡甸区
印江山,商务住宅,住宅区,114.150214,30.414525,湖北省,武汉市,蔡甸区
武地电建君樾府,商务住宅,住宅区,114.158569,30.407523,湖北省,武汉市,蔡甸区
智慧车都青年城,商务住宅,住宅区,114.14249,30.410025,湖北省,武汉市,蔡甸区
金色港湾君临水岸,商务住宅,住宅区,114.15264,30.415545,湖北省,武汉市,蔡甸区
弘阳天玺尚院,商务住宅,住宅区,114.146748,30.407763,湖北省,武汉市,蔡甸区
小军山二期,商务住宅,住宅区,114.157184,30.410839,湖北省,武汉市,蔡甸区
小军山小区,商务住宅,住宅区,114.158673,30.409491,湖北省,武汉市,蔡甸区
小军山小区,商务住宅,住宅区,114.1592,30.409523,湖北省,武汉市,蔡甸区
融创·首创九派江山一江赋,商务住宅,住宅区,114.157307,30.400998,湖北省,武汉市,蔡甸区
融创·首创九派江山天水碧,商务住宅,住宅区,114.143956,30.405816,湖北省,武汉市,蔡甸区
海伦堡·海伦小镇2期,商务住宅,住宅区,114.16481,30.408738,湖北省,武汉市,蔡甸区
海伦小镇2期叠墅,商务住宅,住宅区,114.165222,30.408065,湖北省,武汉市,蔡甸区
武汉海伦小镇5期,商务住宅,住宅区,114.168424,30.419391,湖北省,武汉市,蔡甸区
海伦小镇悦山,商务住宅,住宅区,114.165026,30.416227,湖北省,武汉市,蔡甸区
海伦小镇三期,商务住宅,住宅区,114.16218,30.408493,湖北省,武汉市,蔡甸区
绿城凤鸣桃源,商务住宅,住宅区,114.135027,30.438572,湖北省,武汉市,蔡甸区
碧桂园忆西湖,商务住宅,住宅区,113.957021,30.510119,湖北省,武汉市,蔡甸区
玉贤棉花收购站家属楼,商务住宅,住宅区,113.983827,30.507616,湖北省,武汉市,蔡甸区
鸽翅岭村,商务住宅,住宅区,113.965185,30.541737,湖北省,武汉市,蔡甸区
龚家渡,商务住宅,住宅区,113.932111,30.558246,湖北省,武汉市,蔡甸区
中南云城,商务住宅,住宅区,114.133552,30.664424,湖北省,武汉市,东西湖区
东原印·未来,商务住宅,住宅区,114.122981,30.664324,湖北省,武汉市,东西湖区
联发·璞悦府,商务住宅,住宅区,114.127801,30.661486,湖北省,武汉市,东西湖区
保利翡丽公馆,商务住宅,住宅区,114.116253,30.663886,湖北省,武汉市,东西湖区
佳兆业·悦府,商务住宅,住宅区,114.116573,30.655306,湖北省,武汉市,东西湖区
都市·径水澜苑,商务住宅,住宅区,114.125668,30.658897,湖北省,武汉市,东西湖区
保利东西湖印象,商务住宅,住宅区,114.117043,30.665596,湖北省,武汉市,东西湖区
武汉当代境MOMΛ,商务住宅,住宅区,114.123194,30.659299,湖北省,武汉市,东西湖区
中梁·天玺壹号,商务住宅,住宅区,114.123662,30.661744,湖北省,武汉市,东西湖区
新城·桃李郡,商务住宅,住宅区,114.125489,30.655574,湖北省,武汉市,东西湖区
首开·国风上观,商务住宅,住宅区,114.128039,30.659352,湖北省,武汉市,东西湖区
林沙新村,商务住宅,住宅区,113.993954,30.732107,湖北省,武汉市,东西湖区
荣天企业城,商务住宅,住宅区,113.996763,30.757177,湖北省,武汉市,东西湖区
嘉宜新园,商务住宅,住宅区,113.986776,30.759693,湖北省,武汉市,东西湖区
辉包姚集聚芳园,商务住宅,住宅区,114.372481,31.213364,湖北省,武汉市,黄陂区
万中庭园,商务住宅,住宅区,114.37734,31.218973,湖北省,武汉市,黄陂区
泰达花园生活中心,商务住宅,住宅区,114.41863,30.327254,湖北省,武汉市,江夏区
香薇丽园,商务住宅,住宅区,114.418709,30.328176000000003,湖北省,武汉市,江夏区
百瑞园,商务住宅,住宅区,114.419169,30.325112,湖北省,武汉市,江夏区
来苏里社区,商务住宅,住宅区,114.415793,30.353646,湖北省,武汉市,江夏区
景瑞•未来悦,商务住宅,住宅区,114.415518,30.352344,湖北省,武汉市,江夏区
武地融创锦上公馆,商务住宅,住宅区,114.397994,30.343951,湖北省,武汉市,江夏区
伊托邦绿洲长岛,商务住宅,住宅区,114.401267,30.345584,湖北省,武汉市,江夏区
琨瑜之星,商务住宅,住宅区,114.396013,30.343055,湖北省,武汉市,江夏区
路劲时代城天隽,商务住宅,住宅区,114.395954,30.346005,湖北省,武汉市,江夏区
拾光里,商务住宅,住宅区,114.393819,30.34434,湖北省,武汉市,江夏区
毛家畈社区,商务住宅,住宅区,114.388024,30.341040000000003,湖北省,武汉市,江夏区
龙山水榭,商务住宅,住宅区,114.317062,30.336354,湖北省,武汉市,江夏区
龙山观邸,商务住宅,住宅区,114.318059,30.337146,湖北省,武汉市,江夏区
程古楼湾,商务住宅,住宅区,114.358306,30.329406,湖北省,武汉市,江夏区
郑店小区,商务住宅,住宅区,114.260683,30.329158,湖北省,武汉市,江夏区
郑店红旗花园,商务住宅,住宅区,114.265402,30.327886,湖北省,武汉市,江夏区
黄金社区,商务住宅,住宅区,114.260634,30.36633,湖北省,武汉市,江夏区
碧桂园·天玺湾,商务住宅,住宅区,114.381106,30.384711,湖北省,武汉市,江夏区
中洲小区,商务住宅,住宅区,114.403428,30.38033,湖北省,武汉市,江夏区
丰泽园,商务住宅,住宅区,114.377935,30.385726,湖北省,武汉市,江夏区
美加湖滨新城,商务住宅,住宅区,114.378071,30.390741,湖北省,武汉市,江夏区
武汉雅居乐花园,商务住宅,住宅区,114.378688,30.398206,湖北省,武汉市,江夏区
清江泓景,商务住宅,住宅区,114.324133,30.392258,湖北省,武汉市,江夏区
龙湖·紫都城,商务住宅,住宅区,114.31864,30.389355,湖北省,武汉市,江夏区
中建文华广场,商务住宅,住宅区,114.317473,30.392058,湖北省,武汉市,江夏区
新城·金郡,商务住宅,住宅区,114.318938,30.394105,湖北省,武汉市,江夏区
新长江香榭湾,商务住宅,住宅区,114.323849,30.400988,湖北省,武汉市,江夏区
韵湖春晓,商务住宅,住宅区,114.323021,30.434717,湖北省,武汉市,洪山区
汤逊湖小区,商务住宅,住宅区,114.330539,30.436855,湖北省,武汉市,洪山区
澳门庄园精英社区,商务住宅,住宅区,114.373714,30.425377,湖北省,武汉市,江夏区
玉龙岛花园,商务住宅,住宅区,114.372839,30.439207,湖北省,武汉市,江夏区
保利·十二橡树山庄,商务住宅,住宅区,114.377337,30.448956000000003,湖北省,武汉市,江夏区
水云居,商务住宅,住宅区,114.368416,30.438867,湖北省,武汉市,江夏区
玉龙岛飞龙亭,商务住宅,住宅区,114.370833,30.438197,湖北省,武汉市,江夏区
世茂林屿岸,商务住宅,住宅区,114.319589,30.448097,湖北省,武汉市,洪山区
桥富水岸,商务住宅,住宅区,114.319192,30.453342,湖北省,武汉市,洪山区
镜湖园,商务住宅,住宅区,114.406043,30.429604,湖北省,武汉市,江夏区
万豪水岸枫林,商务住宅,住宅区,114.407522,30.42602,湖北省,武汉市,江夏区
新凯御景湾,商务住宅,住宅区,114.395311,30.436164,湖北省,武汉市,江夏区
依水园,商务住宅,住宅区,114.404874,30.426855,湖北省,武汉市,江夏区
蓝宝石生态公园,商务住宅,住宅区,114.40461,30.424532,湖北省,武汉市,江夏区
阳光海岸,商务住宅,住宅区,114.381153,30.436543,湖北省,武汉市,江夏区
御园·御景湾,商务住宅,住宅区,114.394776,30.436291,湖北省,武汉市,江夏区
藏龙岛水天居社区,商务住宅,住宅区,114.40389,30.426307,湖北省,武汉市,江夏区
万豪水岸,商务住宅,住宅区,114.406987,30.425864,湖北省,武汉市,江夏区
藏龙·水天居,商务住宅,住宅区,114.405877,30.426097,湖北省,武汉市,江夏区
光谷麦郡,商务住宅,住宅区,114.381895,30.437893,湖北省,武汉市,江夏区
临江花园,商务住宅,住宅区,114.214793,30.469038,湖北省,武汉市,蔡甸区
纸城苑社区,商务住宅,住宅区,114.199597,30.463436,湖北省,武汉市,蔡甸区
港湾江城二期,商务住宅,住宅区,114.198231,30.459010000000003,湖北省,武汉市,蔡甸区
德信阳光城项目管理部,商务住宅,住宅区,114.20135,30.45976,湖北省,武汉市,蔡甸区
临江花园二期,商务住宅,住宅区,114.215067,30.468394,湖北省,武汉市,蔡甸区
长江·楚韵,商务住宅,住宅区,114.218025,30.471844,湖北省,武汉市,蔡甸区
华立苑社区,商务住宅,住宅区,114.2242,30.482528,湖北省,武汉市,汉阳区
周公2区,商务住宅,住宅区,114.195029,30.472766,湖北省,武汉市,蔡甸区
龙泉社区,商务住宅,住宅区,114.478294,30.393935,湖北省,武汉市,江夏区
居民之家,商务住宅,住宅区,114.562734,30.457883,湖北省,武汉市,江夏区
九龙湖社区二期,商务住宅,住宅区,114.560075,30.46019,湖北省,武汉市,江夏区
神墩桥小区,商务住宅,住宅区,114.561386,30.457672,湖北省,武汉市,江夏区
神墩桥还建小区,商务住宅,住宅区,114.56241,30.459636,湖北省,武汉市,江夏区
长存芯园,商务住宅,住宅区,114.611101,30.463526,湖北省,武汉市,洪山区
侨梦园,商务住宅,住宅区,114.472345,30.440878,湖北省,武汉市,江夏区
当代云谷1期,商务住宅,住宅区,114.472889,30.452342,湖北省,武汉市,江夏区
凤凰小区,商务住宅,住宅区,114.471126,30.438235,湖北省,武汉市,江夏区
同位素园1期,商务住宅,住宅区,114.528368,30.470496,湖北省,武汉市,江夏区
九峯新小区,商务住宅,住宅区,114.481551,30.505388,湖北省,武汉市,洪山区
九通街·景源里小区,商务住宅,住宅区,114.485117,30.504446,湖北省,武汉市,洪山区
九峰街·景源里社区,商务住宅,住宅区,114.483314,30.504828,湖北省,武汉市,洪山区
花城家园樱园,商务住宅,住宅区,114.531805,30.519176,湖北省,武汉市,洪山区
花城家园兰园,商务住宅,住宅区,114.52804,30.518914,湖北省,武汉市,洪山区
花城家园棠园,商务住宅,住宅区,114.527732,30.52021,湖北省,武汉市,洪山区
花城家园竹园,商务住宅,住宅区,114.520243,30.520593,湖北省,武汉市,洪山区
花城家园桃园,商务住宅,住宅区,114.530227,30.52271,湖北省,武汉市,洪山区
花城家园槿园,商务住宅,住宅区,114.530649,30.520996,湖北省,武汉市,洪山区
东湖笛园,商务住宅,住宅区,114.458727,30.535959,湖北省,武汉市,洪山区
东都城还建房,商务住宅,住宅区,114.461709,30.52164,湖北省,武汉市,洪山区
建强社区,商务住宅,住宅区,114.459252,30.53424,湖北省,武汉市,洪山区
碧桂园生态城光谷新中心,商务住宅,住宅区,114.494911,30.551325,湖北省,武汉市,洪山区
滨湖花园,商务住宅,住宅区,114.454005,30.546242,湖北省,武汉市,洪山区
七龙湖小区,商务住宅,住宅区,114.668998,30.593887,湖北省,武汉市,新洲区
双柳新城,商务住宅,住宅区,114.653981,30.59955,湖北省,武汉市,新洲区
常阳,商务住宅,住宅区,114.655943,30.591572,湖北省,武汉市,新洲区
兴龙街13号,商务住宅,住宅区,114.668686,30.591599,湖北省,武汉市,新洲区
双柳街龙口小区,商务住宅,住宅区,114.601413,30.614339,湖北省,武汉市,新洲区
联投·花山郡,商务住宅,住宅区,114.488656,30.562021,湖北省,武汉市,洪山区
万科花山紫悦湾,商务住宅,住宅区,114.495244,30.559656,湖北省,武汉市,洪山区
水蓝湾,商务住宅,住宅区,114.493374,30.554323,湖北省,武汉市,洪山区
花山郡,商务住宅,住宅区,114.491933,30.558658,湖北省,武汉市,洪山区
泰康之家·楚园,商务住宅,住宅区,114.493569,30.566317,湖北省,武汉市,洪山区
花山郡2期,商务住宅,住宅区,114.491624,30.561816,湖北省,武汉市,洪山区
海伦国际,商务住宅,住宅区,114.468958,30.584069,湖北省,武汉市,青山区
亿达云山湖,商务住宅,住宅区,114.509335,30.557977,湖北省,武汉市,洪山区
绿城凤起乐鸣,商务住宅,住宅区,114.503446,30.55983,湖北省,武汉市,洪山区
绿城生活美学馆,商务住宅,住宅区,114.503548,30.562121,湖北省,武汉市,洪山区
纽宾凯·麓院,商务住宅,住宅区,114.502601,30.563952,湖北省,武汉市,洪山区
中交越秀·知园,商务住宅,住宅区,114.505953,30.559472000000003,湖北省,武汉市,洪山区
亿达光谷大观,商务住宅,住宅区,114.500817,30.563717,湖北省,武汉市,洪山区
北湖管委会安智小区,商务住宅,住宅区,114.549459,30.581534,湖北省,武汉市,青山区
武钢北湖经济开发公司一炼钢村,商务住宅,住宅区,114.528428,30.586421,湖北省,武汉市,青山区
北湖名居,商务住宅,住宅区,114.495414,30.603572,湖北省,武汉市,青山区
怡景雅居,商务住宅,住宅区,114.492714,30.603524,湖北省,武汉市,青山区
同兴花园,商务住宅,住宅区,114.485439,30.603283,湖北省,武汉市,青山区
武汉国博新城和江府,商务住宅,住宅区,114.228026,30.501183,湖北省,武汉市,汉阳区
电建地产洺悦江湾,商务住宅,住宅区,114.233737,30.496852,湖北省,武汉市,汉阳区
武汉国博新城华江府,商务住宅,住宅区,114.229748,30.503415,湖北省,武汉市,汉阳区
武汉国博新城融江府,商务住宅,住宅区,114.230466,30.499377,湖北省,武汉市,汉阳区
金地兰亭大境,商务住宅,住宅区,114.229104,30.490149,湖北省,武汉市,汉阳区
招商江山和樾,商务住宅,住宅区,114.23448,30.498491,湖北省,武汉市,汉阳区
绿城金地凤起听澜,商务住宅,住宅区,114.237118,30.501195000000003,湖北省,武汉市,汉阳区
长江紫都,商务住宅,住宅区,114.283447,30.510148,湖北省,武汉市,武昌区
芳草园,商务住宅,住宅区,114.25665,30.520089,湖北省,武汉市,汉阳区
烽火·茗盛绿堓,商务住宅,住宅区,114.284256,30.506885,湖北省,武汉市,武昌区
滨江·金茂府,商务住宅,住宅区,114.259272,30.519154,湖北省,武汉市,汉阳区
越秀汉阳星汇云锦,商务住宅,住宅区,114.257657,30.516857,湖北省,武汉市,汉阳区
紫荆园,商务住宅,住宅区,114.281479,30.50826,湖北省,武汉市,武昌区
长江紫都六期-柠檬墅,商务住宅,住宅区,114.278877,30.504604,湖北省,武汉市,武昌区
长江紫都四期-紫荆园,商务住宅,住宅区,114.280957,30.507769,湖北省,武汉市,武昌区
长江紫都五期-观澜天地,商务住宅,住宅区,114.279802,30.505839,湖北省,武汉市,武昌区
长江紫都三期-紫桂园,商务住宅,住宅区,114.284565,30.510272,湖北省,武汉市,武昌区
磨山社区,商务住宅,住宅区,114.406794,30.543101,湖北省,武汉市,洪山区
东湖景区磨山社区,商务住宅,住宅区,114.407659,30.543045,湖北省,武汉市,洪山区
东湖小房子聚会别墅,商务住宅,住宅区,114.422186,30.574012,湖北省,武汉市,洪山区
东湖养生保健园,商务住宅,住宅区,114.428665,30.582515,湖北省,武汉市,洪山区
纯水岸·东湖天樾,商务住宅,住宅区,114.383071,30.586440000000003,湖北省,武汉市,洪山区
卓越罗纳河谷,商务住宅,住宅区,114.255154,30.684874,湖北省,武汉市,黄陂区
汉飞·洋房印象,商务住宅,住宅区,114.250628,30.682994,湖北省,武汉市,黄陂区
金川·纯水岸,商务住宅,住宅区,114.253551,30.68214,湖北省,武汉市,黄陂区
金银湖·1号院,商务住宅,住宅区,114.207264,30.671025,湖北省,武汉市,东西湖区
武汉奥林Peak花园,商务住宅,住宅区,114.211617,30.671865,湖北省,武汉市,东西湖区
李家墩小区,商务住宅,住宅区,114.211919,30.674453,湖北省,武汉市,东西湖区
常青九村,商务住宅,住宅区,114.20453,30.673915,湖北省,武汉市,东西湖区
碧云天,商务住宅,住宅区,114.206978,30.673672,湖北省,武汉市,东西湖区
富力西溪悦居,商务住宅,住宅区,114.20301,30.676896,湖北省,武汉市,东西湖区
假日花园1期,商务住宅,住宅区,114.204849,30.671369,湖北省,武汉市,东西湖区
武汉奥林匹克花园商场,商务住宅,住宅区,114.209668,30.670574,湖北省,武汉市,东西湖区
武石化二生活住宿区,商务住宅,住宅区,114.433172,30.656042000000003,湖北省,武汉市,青山区
青山镇街船厂小区,商务住宅,住宅区,114.437332,30.654925,湖北省,武汉市,青山区
武石化第一生活社区,商务住宅,住宅区,114.434577,30.655113,湖北省,武汉市,青山区
长江明珠,商务住宅,住宅区,114.368165,30.673044,湖北省,武汉市,江岸区
城开·天兴花园,商务住宅,住宅区,114.36822,30.685976,湖北省,武汉市,江岸区
天兴花园·天盛园,商务住宅,住宅区,114.370185,30.685019,湖北省,武汉市,江岸区
幸福湾·星锦,商务住宅,住宅区,114.345295,30.670198000000003,湖北省,武汉市,江岸区
幸福湾·星语,商务住宅,住宅区,114.344461,30.680565,湖北省,武汉市,江岸区
幸福湾·星润,商务住宅,住宅区,114.339174,30.672499,湖北省,武汉市,江岸区
和澄园,商务住宅,住宅区,114.414697,30.735198,湖北省,武汉市,黄陂区
和港园,商务住宅,住宅区,114.41426,30.734643,湖北省,武汉市,黄陂区
联投·汉口郡1期,商务住宅,住宅区,114.409215,30.723375,湖北省,武汉市,黄陂区
联投·汉口郡3期,商务住宅,住宅区,114.408378,30.725863,湖北省,武汉市,黄陂区
和湃园,商务住宅,住宅区,114.41283,30.734421,湖北省,武汉市,黄陂区
德大浅水湾,商务住宅,住宅区,114.333893,30.7194,湖北省,武汉市,黄陂区
御湖园,商务住宅,住宅区,114.330326,30.731431,湖北省,武汉市,黄陂区
万可后海,商务住宅,住宅区,114.327873,30.727012,湖北省,武汉市,黄陂区
御景国际,商务住宅,住宅区,114.330424,30.732539,湖北省,武汉市,黄陂区
龙湖33尊,商务住宅,住宅区,114.253711,30.699854,湖北省,武汉市,黄陂区
刘古塘还建社区,商务住宅,住宅区,114.244304,30.699687,湖北省,武汉市,黄陂区
雄鹰园,商务住宅,住宅区,114.255596,30.700307,湖北省,武汉市,黄陂区
梅园鑫庭,商务住宅,住宅区,114.244946,30.701689,湖北省,武汉市,黄陂区
万博玖珑湾,商务住宅,住宅区,114.251024,30.685969,湖北省,武汉市,黄陂区
明想青年汇,商务住宅,住宅区,114.244081,30.698117,湖北省,武汉市,黄陂区
丰荷园,商务住宅,住宅区,114.236459,30.701092,湖北省,武汉市,黄陂区
佰昌·巢尚汇,商务住宅,住宅区,114.248927,30.701792,湖北省,武汉市,黄陂区
巢上城,商务住宅,住宅区,114.25159,30.701593,湖北省,武汉市,黄陂区
兰江生态公园里,商务住宅,住宅区,114.240906,30.700832,湖北省,武汉市,黄陂区
21世纪,商务住宅,住宅区,114.242221,30.699214,湖北省,武汉市,黄陂区
锦园,商务住宅,住宅区,114.249575,30.702733,湖北省,武汉市,黄陂区
华方园,商务住宅,住宅区,114.253229,30.70001,湖北省,武汉市,黄陂区
宝安山水龙城,商务住宅,住宅区,114.258728,30.695588,湖北省,武汉市,黄陂区
天纵·澜桥康城,商务住宅,住宅区,114.25824,30.687396,湖北省,武汉市,黄陂区
中城时代,商务住宅,住宅区,114.284389,30.703014,湖北省,武汉市,黄陂区
巢NEST仙鹤园,商务住宅,住宅区,114.256546,30.702168,湖北省,武汉市,黄陂区
保合太和,商务住宅,住宅区,114.256928,30.697854,湖北省,武汉市,黄陂区
南山里,商务住宅,住宅区,114.258863,30.691,湖北省,武汉市,黄陂区
枫橡家园社区,商务住宅,住宅区,114.307642,30.735846,湖北省,武汉市,黄陂区
天纵御景湾,商务住宅,住宅区,114.272781,30.749966,湖北省,武汉市,黄陂区
大华生态公园华府,商务住宅,住宅区,114.261929,30.748026,湖北省,武汉市,黄陂区
悦荟天地,商务住宅,住宅区,114.224272,30.731351,湖北省,武汉市,黄陂区
武汉城建新时代,商务住宅,住宅区,114.2221,30.733502,湖北省,武汉市,黄陂区
尚璟瑞府,商务住宅,住宅区,114.223208,30.724182000000003,湖北省,武汉市,黄陂区
华发越秀悦府,商务住宅,住宅区,114.224703,30.727364,湖北省,武汉市,黄陂区
曾张王,商务住宅,住宅区,114.467852,30.629397,湖北省,武汉市,青山区
五一小区,商务住宅,住宅区,114.468777,30.625783,湖北省,武汉市,青山区
杨新湾,商务住宅,住宅区,114.580948,30.624232,湖北省,武汉市,新洲区
半岛华庭,商务住宅,住宅区,114.592342,30.644878,湖北省,武汉市,新洲区
新影华翔城,商务住宅,住宅区,114.599959,30.636936,湖北省,武汉市,新洲区
中铁诺德逸都,商务住宅,住宅区,114.610788,30.681661,湖北省,武汉市,新洲区
阳逻金茂悦社区,商务住宅,住宅区,114.612218,30.686351,湖北省,武汉市,新洲区
红星天铂2期,商务住宅,住宅区,114.591552,30.680872,湖北省,武汉市,新洲区
楚天都市蓝玉湾,商务住宅,住宅区,114.605964,30.67101,湖北省,武汉市,新洲区
中铁逸景湾,商务住宅,住宅区,114.605245,30.676002,湖北省,武汉市,新洲区
城投·东方领誉,商务住宅,住宅区,114.593687,30.68431,湖北省,武汉市,新洲区
清能熙悦台,商务住宅,住宅区,114.6098,30.672980000000003,湖北省,武汉市,新洲区
红星天铂二期,商务住宅,住宅区,114.592646,30.679478,湖北省,武汉市,新洲区
红星天铂小区,商务住宅,住宅区,114.59276,30.685572,湖北省,武汉市,新洲区
华发·中城中央荟,商务住宅,住宅区,114.597935,30.679013,湖北省,武汉市,新洲区
宝业·星毓府,商务住宅,住宅区,114.600964,30.682793,湖北省,武汉市,新洲区
武汉宝龙世家,商务住宅,住宅区,114.616665,30.689876,湖北省,武汉市,新洲区
香开长龙,商务住宅,住宅区,114.611997,30.689709,湖北省,武汉市,新洲区
武汉宝龙世家,商务住宅,住宅区,114.618972,30.690451,湖北省,武汉市,新洲区
阳逻金茂逸墅,商务住宅,住宅区,114.601763,30.688326,湖北省,武汉市,新洲区
华发阳逻金茂逸墅,商务住宅,住宅区,114.596431,30.686596,湖北省,武汉市,新洲区
佳兆业浣溪璞园,商务住宅,住宅区,114.617104,30.686266,湖北省,武汉市,新洲区
武汉物联商务区,商务住宅,住宅区,114.599092,30.690967,湖北省,武汉市,新洲区
武汉万达文旅城,商务住宅,住宅区,114.610031,30.692768,湖北省,武汉市,新洲区
绿城桃李春风·御园,商务住宅,住宅区,114.603392,30.696057000000003,湖北省,武汉市,新洲区
华发中城中央生态公园,商务住宅,住宅区,114.60322,30.698912,湖北省,武汉市,新洲区
华发·中城中央公园一期-北区,商务住宅,住宅区,114.602969,30.700113,湖北省,武汉市,新洲区
博大·学府城,商务住宅,住宅区,114.599499,30.712646,湖北省,武汉市,新洲区
金科桃湖美镇,商务住宅,住宅区,114.608711,30.721062,湖北省,武汉市,新洲区
金科桃湖美镇,商务住宅,住宅区,114.606192,30.719869,湖北省,武汉市,新洲区
格林美城市矿产循环产业园区生活区,商务住宅,住宅区,114.607081,30.748828,湖北省,武汉市,新洲区
沙口新花园,商务住宅,住宅区,114.479492,30.702847,湖北省,武汉市,黄陂区
沙口小区,商务住宅,住宅区,114.481364,30.704777,湖北省,武汉市,黄陂区
平江壹号,商务住宅,住宅区,114.553695,30.701528,湖北省,武汉市,新洲区
东原·朗阅,商务住宅,住宅区,114.555591,30.698812,湖北省,武汉市,新洲区
河口村先生塆,商务住宅,住宅区,114.650944,30.790609,湖北省,武汉市,新洲区
春兰园,商务住宅,住宅区,114.616418,30.788391,湖北省,武汉市,新洲区
鸡窝湾,商务住宅,住宅区,114.616188,30.793541,湖北省,武汉市,新洲区
古楼社区,商务住宅,住宅区,114.614009,30.796173,湖北省,武汉市,新洲区
柳细湾,商务住宅,住宅区,114.615068,30.842693,湖北省,武汉市,新洲区
文腾新佳园,商务住宅,住宅区,114.603978,30.836477,湖北省,武汉市,新洲区
靠山小镇,商务住宅,住宅区,114.621004,30.868825,湖北省,武汉市,新洲区
武汉天河国际机场综合楼,商务住宅,住宅区,114.204349,30.760066,湖北省,武汉市,黄陂区
爱尚园,商务住宅,住宅区,114.276284,30.769264,湖北省,武汉市,黄陂区
木兰俊才公寓横店,商务住宅,住宅区,114.28249,30.799629,湖北省,武汉市,黄陂区
横店空港花园一期,商务住宅,住宅区,114.283102,30.801254,湖北省,武汉市,黄陂区
新春花园,商务住宅,住宅区,114.279364,30.790772,湖北省,武汉市,黄陂区
武汉金恒福城市广场,商务住宅,住宅区,114.283954,30.80706,湖北省,武汉市,黄陂区
横店空港花园,商务住宅,住宅区,114.282097,30.803004,湖北省,武汉市,黄陂区
金恒福城市广场,商务住宅,住宅区,114.283081,30.807538,湖北省,武汉市,黄陂区
横店街复兴家园社区,商务住宅,住宅区,114.284709,30.805331,湖北省,武汉市,黄陂区
蓝天生态林园,商务住宅,住宅区,114.255025,30.806473,湖北省,武汉市,黄陂区
向店湾,商务住宅,住宅区,114.363324,30.772881,湖北省,武汉市,黄陂区
潘照湾,商务住宅,住宅区,114.407926,30.773438,湖北省,武汉市,黄陂区
甘家田罗湾,商务住宅,住宅区,114.410449,30.881311,湖北省,武汉市,黄陂区
青仔村还建社区,商务住宅,住宅区,114.342203,30.882599,湖北省,武汉市,黄陂区
童碓湾,商务住宅,住宅区,114.715632,30.753116,湖北省,武汉市,新洲区
新建公寓,商务住宅,住宅区,114.712258,30.776358,湖北省,武汉市,新洲区
站桥湾,商务住宅,住宅区,114.793285,30.780071000000003,湖北省,武汉市,新洲区
邾城街站桥塆,商务住宅,住宅区,114.792417,30.780345,湖北省,武汉市,新洲区
黄六官上湾,商务住宅,住宅区,114.744519,30.774697000000003,湖北省,武汉市,新洲区
武汉城建融创水韵长洲,商务住宅,住宅区,114.796767,30.815133,湖北省,武汉市,新洲区
靖药铺塆,商务住宅,住宅区,114.765293,30.811777,湖北省,武汉市,新洲区
王泗村大屋小塆,商务住宅,住宅区,114.694953,30.794357,湖北省,武汉市,新洲区
汪集镇胡胜祖后塆,商务住宅,住宅区,114.740216,30.796745,湖北省,武汉市,新洲区
华星·龙腾国际,商务住宅,住宅区,114.833746,30.825961,湖北省,武汉市,新洲区
新街村高家塆,商务住宅,住宅区,114.699331,30.828722000000003,湖北省,武汉市,新洲区
桂山村桂大塆,商务住宅,住宅区,114.71242,30.836472,湖北省,武汉市,新洲区
细何湾,商务住宅,住宅区,114.768373,30.850064,湖北省,武汉市,新洲区
吴太大湾,商务住宅,住宅区,114.760989,30.859632,湖北省,武汉市,新洲区
学林·博雅天城,商务住宅,住宅区,114.798814,30.852362,湖北省,武汉市,新洲区
欣佳花园,商务住宅,住宅区,114.801397,30.853287,湖北省,武汉市,新洲区
牧羊宗湾,商务住宅,住宅区,114.734301,30.878266,湖北省,武汉市,新洲区
大游湾,商务住宅,住宅区,114.684683,30.875219,湖北省,武汉市,新洲区
成家龙湾,商务住宅,住宅区,114.785424,30.89184,湖北省,武汉市,新洲区
泉水档,商务住宅,住宅区,114.795299,30.908155,湖北省,武汉市,新洲区
卧龙湾,商务住宅,住宅区,114.786198,30.917664,湖北省,武汉市,新洲区
桃花社区,商务住宅,住宅区,114.361572,30.907481,湖北省,武汉市,黄陂区
王家河东方社区,商务住宅,住宅区,114.419245,30.963183,湖北省,武汉市,黄陂区
方杨小区,商务住宅,住宅区,114.643792,30.898265,湖北省,武汉市,新洲区
刘成港,商务住宅,住宅区,114.666197,30.887391,湖北省,武汉市,新洲区
胡罗湾,商务住宅,住宅区,114.660904,30.907379,湖北省,武汉市,新洲区
善缘公寓楼,商务住宅,住宅区,114.351075,31.094985,湖北省,武汉市,黄陂区
岭南社区,商务住宅,住宅区,114.348613,31.089735,湖北省,武汉市,黄陂区
天缘园社区,商务住宅,住宅区,114.349346,31.088365,湖北省,武汉市,黄陂区
付氏尚苑社区,商务住宅,住宅区,114.348048,31.086834,湖北省,武汉市,黄陂区
聚星阁社区,商务住宅,住宅区,114.352424,31.095863,湖北省,武汉市,黄陂区
金域尚城,商务住宅,住宅区,114.124581,30.293171,湖北省,武汉市,江夏区
金隆小区,商务住宅,住宅区,114.124801,30.297583000000003,湖北省,武汉市,江夏区
金隆社区金康小区D区,商务住宅,住宅区,114.123718,30.298596,湖北省,武汉市,江夏区
金水小区,商务住宅,住宅区,114.192095,30.34392,湖北省,武汉市,江夏区
金港一号花园,商务住宅,住宅区,114.148908,30.339332,湖北省,武汉市,江夏区
新长江香榭国际城,商务住宅,住宅区,114.153718,30.340767,湖北省,武汉市,江夏区
金城社区,商务住宅,住宅区,114.154606,30.339512,湖北省,武汉市,江夏区
金口后山府,商务住宅,住宅区,114.158384,30.344103,湖北省,武汉市,江夏区
新长江香榭国际城,商务住宅,住宅区,114.157321,30.342995,湖北省,武汉市,江夏区
金口街花园小区,商务住宅,住宅区,114.134112,30.326645000000003,湖北省,武汉市,江夏区
碧桂园凰城,商务住宅,住宅区,114.08116,30.349636,湖北省,武汉市,汉南区
翠堤春晓,商务住宅,住宅区,114.084762,30.352241000000003,湖北省,武汉市,汉南区
武汉碧桂园江城纪,商务住宅,住宅区,114.082182,30.351824,湖北省,武汉市,汉南区
碧桂园·凰城河畔花林,商务住宅,住宅区,114.085569,30.350584,湖北省,武汉市,汉南区
新城天悦观澜,商务住宅,住宅区,114.029522,30.305248,湖北省,武汉市,汉南区
新长江香榭澜溪,商务住宅,住宅区,114.072867,30.302003,湖北省,武汉市,汉南区
幸福家园,商务住宅,住宅区,114.066667,30.302135,湖北省,武汉市,汉南区
航城丽都,商务住宅,住宅区,114.068646,30.302138,湖北省,武汉市,汉南区
时代海伦堡印记,商务住宅,住宅区,114.03213,30.306462,湖北省,武汉市,汉南区
渝樾春江,商务住宅,住宅区,114.028401,30.308908,湖北省,武汉市,汉南区
渝樾大观,商务住宅,住宅区,114.028905,30.324366,湖北省,武汉市,汉南区
武汉恒大时代新城,商务住宅,住宅区,114.037276,30.329238,湖北省,武汉市,汉南区
南岛·马影河畔C,商务住宅,住宅区,114.06764,30.32438,湖北省,武汉市,汉南区
南岛·马影河畔B,商务住宅,住宅区,114.06425,30.324374,湖北省,武汉市,汉南区
南岛·太白湖畔A,商务住宅,住宅区,114.061872,30.325383,湖北省,武汉市,汉南区
南岛太白湖畔B,商务住宅,住宅区,114.065499,30.32479,湖北省,武汉市,汉南区
绿地城,商务住宅,住宅区,114.062179,30.325579,湖北省,武汉市,汉南区
协子河畔B社区,商务住宅,住宅区,114.061078,30.333389,湖北省,武汉市,汉南区
经开中心城二期二区,商务住宅,住宅区,114.050219,30.333224,湖北省,武汉市,汉南区
北岛左岸B,商务住宅,住宅区,114.071509,30.329418,湖北省,武汉市,汉南区
汉宁楼,商务住宅,住宅区,114.044753,30.323333,湖北省,武汉市,汉南区
河滨世家,商务住宅,住宅区,114.064336,30.335835,湖北省,武汉市,汉南区
武汉绿地城,商务住宅,住宅区,114.065251,30.338077,湖北省,武汉市,汉南区
乌金农庄乌金山社区,商务住宅,住宅区,114.052642,30.343712,湖北省,武汉市,汉南区
万科华生·柏叶新城,商务住宅,住宅区,114.061085,30.339355,湖北省,武汉市,汉南区
兰亭风华,商务住宅,住宅区,114.067051,30.344958,湖北省,武汉市,汉南区
华发中城峰景湾,商务住宅,住宅区,114.066689,30.341805,湖北省,武汉市,汉南区
蒲潭小区,商务住宅,住宅区,114.07386,30.400434,湖北省,武汉市,蔡甸区
绿野名人居二期,商务住宅,住宅区,114.117282,30.392441,湖北省,武汉市,蔡甸区
军山街黄陵小区,商务住宅,住宅区,114.085705,30.407163,湖北省,武汉市,蔡甸区
木天署,商务住宅,住宅区,114.078516,30.407748,湖北省,武汉市,蔡甸区
黃陵卫生室罗式小区,商务住宅,住宅区,114.08836,30.407331,湖北省,武汉市,蔡甸区
幸福小区,商务住宅,住宅区,114.081075,30.409847,湖北省,武汉市,蔡甸区
华之泰养生花园,商务住宅,住宅区,114.08542,30.404796,湖北省,武汉市,蔡甸区
凤凰园,商务住宅,住宅区,114.085536,30.421738,湖北省,武汉市,蔡甸区
奥山经开澎湃城,商务住宅,住宅区,114.084691,30.427375,湖北省,武汉市,蔡甸区
全力南企业小区,商务住宅,住宅区,114.100417,30.448261,湖北省,武汉市,蔡甸区
花博汇蓝城桃李春风,商务住宅,住宅区,114.075331,30.484681,湖北省,武汉市,蔡甸区
世茂嘉年华,商务住宅,住宅区,114.085302,30.484066,湖北省,武汉市,蔡甸区
世茂龙湾2期,商务住宅,住宅区,114.090728,30.486331,湖北省,武汉市,蔡甸区
世茂龙湾4期比弗利,商务住宅,住宅区,114.09751,30.487903000000003,湖北省,武汉市,蔡甸区
武汉院子,商务住宅,住宅区,113.971772,30.437739,湖北省,武汉市,蔡甸区
常福小区,商务住宅,住宅区,114.043016,30.429408,湖北省,武汉市,蔡甸区
福兴小区,商务住宅,住宅区,114.039264,30.433271,湖北省,武汉市,蔡甸区
龙王社区5栋,商务住宅,住宅区,114.052378,30.454405,湖北省,武汉市,蔡甸区
龙王社区1栋,商务住宅,住宅区,114.052709,30.455084,湖北省,武汉市,蔡甸区
龙王社区8栋,商务住宅,住宅区,114.055152,30.454692,湖北省,武汉市,蔡甸区
方兴小区,商务住宅,住宅区,114.055076,30.506817,湖北省,武汉市,蔡甸区
孱陵之星,商务住宅,住宅区,114.064397,30.505045,湖北省,武汉市,蔡甸区
西岸百合春天,商务住宅,住宅区,114.051615,30.504555,湖北省,武汉市,蔡甸区
园丁阁,商务住宅,住宅区,114.051518,30.506643,湖北省,武汉市,蔡甸区
福集华府,商务住宅,住宅区,114.052234,30.507203,湖北省,武汉市,蔡甸区
方兴社区东区,商务住宅,住宅区,114.057285,30.506244,湖北省,武汉市,蔡甸区
方兴社区西区,商务住宅,住宅区,114.053943,30.507085,湖北省,武汉市,蔡甸区
邱屋台,商务住宅,住宅区,114.024105,30.532667,湖北省,武汉市,蔡甸区
萃锦园,商务住宅,住宅区,114.086288,30.503586,湖北省,武汉市,蔡甸区
DRAGON BAY,商务住宅,住宅区,114.08984,30.488693,湖北省,武汉市,蔡甸区
世茂龙湾1期南湖半岛,商务住宅,住宅区,114.088396,30.502834,湖北省,武汉市,蔡甸区
世茂龙湾,商务住宅,住宅区,114.087144,30.506041000000003,湖北省,武汉市,蔡甸区
南湖小区,商务住宅,住宅区,114.099778,30.511176000000003,湖北省,武汉市,蔡甸区
绿地美湖,商务住宅,住宅区,114.093186,30.51376,湖北省,武汉市,蔡甸区
世茂国风11期,商务住宅,住宅区,114.090314,30.504954,湖北省,武汉市,蔡甸区
悦湖明珠,商务住宅,住宅区,114.104634,30.510052,湖北省,武汉市,蔡甸区
世茂龙湾八期锦礼,商务住宅,住宅区,114.088734,30.50691,湖北省,武汉市,蔡甸区
江大园,商务住宅,住宅区,114.158831,30.523561,湖北省,武汉市,蔡甸区
金桥·普林斯顿,商务住宅,住宅区,114.145728,30.521756,湖北省,武汉市,蔡甸区
东方夏威夷国际花园水映香堤,商务住宅,住宅区,114.138962,30.522054,湖北省,武汉市,蔡甸区
后官湖·水上人家,商务住宅,住宅区,114.146587,30.520775,湖北省,武汉市,蔡甸区
郑家咀社区服务运营中心,商务住宅,住宅区,114.146249,30.543041,湖北省,武汉市,汉阳区
郑家咀小区,商务住宅,住宅区,114.14688,30.542910000000003,湖北省,武汉市,汉阳区
罗家咀小区,商务住宅,住宅区,114.158872,30.540508,湖北省,武汉市,汉阳区
四季永兴,商务住宅,住宅区,114.145032,30.55033,湖北省,武汉市,汉阳区
观湖园,商务住宅,住宅区,114.084017,30.531563,湖北省,武汉市,蔡甸区
知音湖畔,商务住宅,住宅区,114.084848,30.530718,湖北省,武汉市,蔡甸区
观湖园2期,商务住宅,住宅区,114.089096,30.530981,湖北省,武汉市,蔡甸区
同济医院专家小区,商务住宅,住宅区,114.11596,30.533726,湖北省,武汉市,蔡甸区
马鞍山小区,商务住宅,住宅区,114.093176,30.538193,湖北省,武汉市,蔡甸区
景瑞江山悦,商务住宅,住宅区,114.092761,30.551167,湖北省,武汉市,蔡甸区
金地朗悦,商务住宅,住宅区,114.097838,30.551528,湖北省,武汉市,蔡甸区
知音盛棠,商务住宅,住宅区,114.079247,30.537267000000003,湖北省,武汉市,蔡甸区
马鞍新小区,商务住宅,住宅区,114.094549,30.537932,湖北省,武汉市,蔡甸区
新天村拆迁过渡房社区,商务住宅,住宅区,114.129531,30.555189,湖北省,武汉市,蔡甸区
新天社区,商务住宅,住宅区,114.127032,30.556548,湖北省,武汉市,蔡甸区
三五四五社区,商务住宅,住宅区,114.124814,30.55449,湖北省,武汉市,蔡甸区
三五四一小区,商务住宅,住宅区,114.131164,30.555079,湖北省,武汉市,蔡甸区
新阳花园,商务住宅,住宅区,114.101804,30.588161000000003,湖北省,武汉市,蔡甸区
琴断口街江城小区,商务住宅,住宅区,114.084468,30.591291,湖北省,武汉市,蔡甸区
汉水新城中法印象,商务住宅,住宅区,114.077554,30.59008,湖北省,武汉市,蔡甸区
中粮祥云·地铁小镇,商务住宅,住宅区,114.003637,30.579568,湖北省,武汉市,蔡甸区
景瑞清能江南悦,商务住宅,住宅区,114.010278,30.580284,湖北省,武汉市,蔡甸区
荣盛华庭,商务住宅,住宅区,114.006867,30.571668,湖北省,武汉市,蔡甸区
中建锦绣双城,商务住宅,住宅区,114.009579,30.572424,湖北省,武汉市,蔡甸区
南德缦和世纪,商务住宅,住宅区,113.995252,30.581458,湖北省,武汉市,蔡甸区
滨江花园,商务住宅,住宅区,114.032784,30.618705,湖北省,武汉市,东西湖区
江花小区,商务住宅,住宅区,113.979361,30.638656,湖北省,武汉市,蔡甸区
富业队,商务住宅,住宅区,114.063752,30.674552,湖北省,武汉市,东西湖区
苗湖汉江湖畔社区,商务住宅,住宅区,113.977417,30.657256,湖北省,武汉市,东西湖区
孙家湾新村,商务住宅,住宅区,113.987833,30.661276,湖北省,武汉市,东西湖区
博大海蓝湾,商务住宅,住宅区,114.164673,30.656158,湖北省,武汉市,东西湖区
美联·德玛假日,商务住宅,住宅区,114.153487,30.656707,湖北省,武汉市,东西湖区
金海湾2期,商务住宅,住宅区,114.147986,30.653869,湖北省,武汉市,东西湖区
稻香园,商务住宅,住宅区,114.152224,30.658913,湖北省,武汉市,东西湖区
美联德玛假日三期德玛风情,商务住宅,住宅区,114.15538,30.656732,湖北省,武汉市,东西湖区
美联·德玛假日二期阳光里,商务住宅,住宅区,114.154102,30.656797,湖北省,武汉市,东西湖区
博大海蓝湾2期澜郡,商务住宅,住宅区,114.163975,30.656578,湖北省,武汉市,东西湖区
新港园,商务住宅,住宅区,114.152228,30.694005,湖北省,武汉市,东西湖区
武汉英赫当代城MOMA,商务住宅,住宅区,114.142288,30.703383,湖北省,武汉市,东西湖区
龙源家院,商务住宅,住宅区,114.100811,30.739114,湖北省,武汉市,东西湖区
荷花园小区1期,商务住宅,住宅区,113.984938,30.695584,湖北省,武汉市,东西湖区
荷花园还建小区1期,商务住宅,住宅区,113.983019,30.696423000000003,湖北省,武汉市,东西湖区
荷花园还建小区2期,商务住宅,住宅区,113.984975,30.692456,湖北省,武汉市,东西湖区
江城宜居,商务住宅,住宅区,114.393139,30.331603,湖北省,武汉市,江夏区
肖榨坊村候家塝塆,商务住宅,住宅区,114.381576,30.335023,湖北省,武汉市,江夏区
黄鹤里社区,商务住宅,住宅区,114.390736,30.331148,湖北省,武汉市,江夏区
锦绣新村,商务住宅,住宅区,114.385592,30.330605,湖北省,武汉市,江夏区
路劲·时代城,商务住宅,住宅区,114.387783,30.334361,湖北省,武汉市,江夏区
锦绣大道6,商务住宅,住宅区,114.388526,30.337935,湖北省,武汉市,江夏区
五里锦绣,商务住宅,住宅区,114.391225,30.334318,湖北省,武汉市,江夏区
白云花园,商务住宅,住宅区,114.29647,30.339906,湖北省,武汉市,武昌区
公路花园社区,商务住宅,住宅区,114.300528,30.341803,湖北省,武汉市,江夏区
山水怡园,商务住宅,住宅区,114.299211,30.351475,湖北省,武汉市,江夏区
世纪花园,商务住宅,住宅区,114.315878,30.366991,湖北省,武汉市,江夏区
阳光雅园,商务住宅,住宅区,114.314768,30.363932,湖北省,武汉市,江夏区
兴邦华庭,商务住宅,住宅区,114.313744,30.371708,湖北省,武汉市,江夏区
江南总督府,商务住宅,住宅区,114.315259,30.367439,湖北省,武汉市,江夏区
大桥十月还建社区,商务住宅,住宅区,114.316977,30.369819,湖北省,武汉市,江夏区
枫泽·星都汇D区,商务住宅,住宅区,114.315202,30.393387,湖北省,武汉市,江夏区
富力绿都中央公园,商务住宅,住宅区,114.311151,30.392605000000003,湖北省,武汉市,江夏区
枫泽星都汇,商务住宅,住宅区,114.313708,30.390976,湖北省,武汉市,江夏区
长泰花园,商务住宅,住宅区,114.312497,30.402522,湖北省,武汉市,江夏区
红旗小区二期,商务住宅,住宅区,114.308759,30.403726,湖北省,武汉市,江夏区
绿城·尊蓝,商务住宅,住宅区,114.310907,30.399533,湖北省,武汉市,江夏区
翰林府,商务住宅,住宅区,114.310411,30.402266,湖北省,武汉市,江夏区
星光大道邢远长村还建社区,商务住宅,住宅区,114.298009,30.40357,湖北省,武汉市,江夏区
建发.金茂玺悦,商务住宅,住宅区,114.296908,30.41196,湖北省,武汉市,江夏区
豹山村还建社区,商务住宅,住宅区,114.290937,30.405209,湖北省,武汉市,江夏区
豹山社区,商务住宅,住宅区,114.289204,30.404947,湖北省,武汉市,江夏区
大桥新区西片区,商务住宅,住宅区,114.287959,30.405907,湖北省,武汉市,江夏区
弘阳云栖玖著,商务住宅,住宅区,114.286522,30.412929,湖北省,武汉市,江夏区
何家湖社区,商务住宅,住宅区,114.262802,30.405763,湖北省,武汉市,江夏区
武汉江夏经济开发区大桥新区龚家铺新村A区,商务住宅,住宅区,114.263699,30.40851,湖北省,武汉市,江夏区
保利时光印象,商务住宅,住宅区,114.276792,30.410777,湖北省,武汉市,江夏区
万科保利联投理想星光,商务住宅,住宅区,114.279518,30.411464,湖北省,武汉市,江夏区
联投濮园,商务住宅,住宅区,114.286069,30.41422,湖北省,武汉市,江夏区
经发·龙湖·云峰原著,商务住宅,住宅区,114.348494,30.355765,湖北省,武汉市,江夏区
幸福社区,商务住宅,住宅区,114.37042,30.368678000000003,湖北省,武汉市,江夏区
花山吴还建社区,商务住宅,住宅区,114.371481,30.369512,湖北省,武汉市,江夏区
新华联青年城,商务住宅,住宅区,114.356201,30.366097,湖北省,武汉市,江夏区
向阳新村,商务住宅,住宅区,114.353852,30.37042,湖北省,武汉市,江夏区
普安小区,商务住宅,住宅区,114.349544,30.370632,湖北省,武汉市,江夏区
百步亭江南郡,商务住宅,住宅区,114.359676,30.369734,湖北省,武汉市,江夏区
江南花山郡,商务住宅,住宅区,114.349883,30.367688,湖北省,武汉市,江夏区
阳光佳苑,商务住宅,住宅区,114.347849,30.374632,湖北省,武汉市,江夏区
宝业德信·宸光里,商务住宅,住宅区,114.354601,30.374689,湖北省,武汉市,江夏区
经发金地·四季都会,商务住宅,住宅区,114.371381,30.375866,湖北省,武汉市,江夏区
美院COAST,商务住宅,住宅区,114.373853,30.385316,湖北省,武汉市,江夏区
富丽·金澜湾,商务住宅,住宅区,114.344118,30.384681,湖北省,武汉市,江夏区
融创桃源里,商务住宅,住宅区,114.334067,30.382844,湖北省,武汉市,江夏区
中锐滨湖尚城,商务住宅,住宅区,114.341743,30.382301,湖北省,武汉市,江夏区
武汉纺织大学公租房,商务住宅,住宅区,114.335263,30.379723,湖北省,武汉市,江夏区
渔牧社区,商务住宅,住宅区,114.318794,30.387493,湖北省,武汉市,江夏区
文华佳园,商务住宅,住宅区,114.321657,30.387178,湖北省,武汉市,江夏区
瑞和华府,商务住宅,住宅区,114.425611,30.392183,湖北省,武汉市,江夏区
栗庙小区,商务住宅,住宅区,114.431626,30.391144,湖北省,武汉市,江夏区
侨亚·中华孝庄,商务住宅,住宅区,114.425432,30.396572,湖北省,武汉市,江夏区
瑞和华府南区,商务住宅,住宅区,114.426927,30.391167,湖北省,武汉市,江夏区
瑞和华府北区,商务住宅,住宅区,114.425441,30.392717,湖北省,武汉市,江夏区
侨亚美苑社区,商务住宅,住宅区,114.427066,30.397407,湖北省,武汉市,江夏区
长投绿城·兰园,商务住宅,住宅区,114.423599,30.397441,湖北省,武汉市,江夏区
湖北城建学院社区,商务住宅,住宅区,114.433485,30.405571,湖北省,武汉市,江夏区
藏龙社区,商务住宅,住宅区,114.42235,30.415281,湖北省,武汉市,江夏区
藏龙·29墅,商务住宅,住宅区,114.415943,30.420869,湖北省,武汉市,江夏区
滨湖壹号,商务住宅,住宅区,114.416087,30.421021,湖北省,武汉市,江夏区
在水一方,商务住宅,住宅区,114.421682,30.417049,湖北省,武汉市,江夏区
宜家·龙臣,商务住宅,住宅区,114.420195,30.417664,湖北省,武汉市,江夏区
滨湖美景,商务住宅,住宅区,114.418647,30.415705,湖北省,武汉市,江夏区
水世界,商务住宅,住宅区,114.379961,30.411891,湖北省,武汉市,江夏区
华丽居,商务住宅,住宅区,114.379513,30.407151,湖北省,武汉市,江夏区
保利海上五月花1期,商务住宅,住宅区,114.378339,30.407314000000003,湖北省,武汉市,江夏区
汤逊湖庄园,商务住宅,住宅区,114.380923,30.411461,湖北省,武汉市,江夏区
纳帕溪谷,商务住宅,住宅区,114.407376,30.408249,湖北省,武汉市,江夏区
伟鹏·鹏湖湾,商务住宅,住宅区,114.322,30.406962,湖北省,武汉市,江夏区
欧亚达云庭,商务住宅,住宅区,114.318115,30.405712,湖北省,武汉市,江夏区
中建·汤逊湖壹号,商务住宅,住宅区,114.335616,30.408853,湖北省,武汉市,江夏区
菩提园,商务住宅,住宅区,114.325032,30.415149,湖北省,武汉市,江夏区
金融街·金悦府,商务住宅,住宅区,114.325621,30.418367,湖北省,武汉市,江夏区
福志友缘,商务住宅,住宅区,114.322478,30.41649,湖北省,武汉市,江夏区
银河湾,商务住宅,住宅区,114.411474,30.423958,湖北省,武汉市,江夏区
银河湾怡景园,商务住宅,住宅区,114.412415,30.423725,湖北省,武汉市,江夏区
银河湾御景园,商务住宅,住宅区,114.41395,30.422977000000003,湖北省,武汉市,江夏区
银河湾金海园,商务住宅,住宅区,114.41004,30.423233,湖北省,武汉市,江夏区
银河湾湖畔假日,商务住宅,住宅区,114.413969,30.421731,湖北省,武汉市,江夏区
银河湾浪琴园,商务住宅,住宅区,114.41029,30.423838,湖北省,武汉市,江夏区
银河湾碧海园,商务住宅,住宅区,114.410541,30.424717,湖北省,武汉市,江夏区
银河湾鹭景园,商务住宅,住宅区,114.40942,30.426365,湖北省,武汉市,江夏区
康顺园,商务住宅,住宅区,114.418457,30.442077,湖北省,武汉市,江夏区
武大航域一区,商务住宅,住宅区,114.409308,30.452953,湖北省,武汉市,江夏区
加州·香山美树,商务住宅,住宅区,114.399831,30.46324,湖北省,武汉市,江夏区
芭比伦堡,商务住宅,住宅区,114.403453,30.470285,湖北省,武汉市,洪山区
中铁七局公寓,商务住宅,住宅区,114.393873,30.465181,湖北省,武汉市,江夏区
东山公寓,商务住宅,住宅区,114.39706,30.467965,湖北省,武汉市,江夏区
自由楼,商务住宅,住宅区,114.427987,30.463768,湖北省,武汉市,江夏区
融城别苑餐馆,商务住宅,住宅区,114.318929,30.454108,湖北省,武汉市,洪山区
锦绣良缘,商务住宅,住宅区,114.371878,30.465709,湖北省,武汉市,江夏区
水蓝郡,商务住宅,住宅区,114.374814,30.469062,湖北省,武汉市,江夏区
新西园,商务住宅,住宅区,114.340877,30.476735,湖北省,武汉市,洪山区
南湖·狮山美庐,商务住宅,住宅区,114.338401,30.477826,湖北省,武汉市,洪山区
珞南雅居,商务住宅,住宅区,114.339045,30.477909,湖北省,武汉市,洪山区
芷岸龙庭,商务住宅,住宅区,114.332286,30.479598,湖北省,武汉市,洪山区
爱家·名校华城,商务住宅,住宅区,114.257623,30.422602,湖北省,武汉市,洪山区
武汉融创城,商务住宅,住宅区,114.295943,30.425495,湖北省,武汉市,江夏区
军运村,商务住宅,住宅区,114.292172,30.426530000000003,湖北省,武汉市,江夏区
联投龙湾·二期,商务住宅,住宅区,114.31019,30.423017,湖北省,武汉市,江夏区
岭尚梦想,商务住宅,住宅区,114.308199,30.422121,湖北省,武汉市,江夏区
联投龙湾3期,商务住宅,住宅区,114.308953,30.427989,湖北省,武汉市,江夏区
联投龙湾1期,商务住宅,住宅区,114.316152,30.427938,湖北省,武汉市,江夏区
柏木岭社区,商务住宅,住宅区,114.308729,30.437542,湖北省,武汉市,江夏区
金茂华发武汉国际社区,商务住宅,住宅区,114.29803,30.431661,湖北省,武汉市,江夏区
Midea·君兰半岛,商务住宅,住宅区,114.30026,30.436075,湖北省,武汉市,江夏区
翰林尚园,商务住宅,住宅区,114.31594,30.44238,湖北省,武汉市,洪山区
虹桥花园,商务住宅,住宅区,114.31553,30.453332,湖北省,武汉市,洪山区
李桥一区,商务住宅,住宅区,114.309485,30.454372,湖北省,武汉市,洪山区
聚福园,商务住宅,住宅区,114.311699,30.451734,湖北省,武汉市,洪山区
李桥二区,商务住宅,住宅区,114.307503,30.453307,湖北省,武汉市,洪山区
李桥4区,商务住宅,住宅区,114.315865,30.450525,湖北省,武汉市,洪山区
东原湖光里,商务住宅,住宅区,114.297209,30.453239,湖北省,武汉市,洪山区
桂园,商务住宅,住宅区,114.2657,30.438477,湖北省,武汉市,洪山区
武汉科技大学黄家湖校区科大沁园,商务住宅,住宅区,114.273413,30.439666,湖北省,武汉市,洪山区
武汉科技大学黄家湖校区家属区,商务住宅,住宅区,114.274091,30.441137,湖北省,武汉市,洪山区
和园,商务住宅,住宅区,114.267887,30.447841,湖北省,武汉市,洪山区
融科花满庭,商务住宅,住宅区,114.261335,30.448487,湖北省,武汉市,洪山区
青菱社区,商务住宅,住宅区,114.262365,30.454465,湖北省,武汉市,洪山区
香水湾,商务住宅,住宅区,114.260315,30.445995,湖北省,武汉市,洪山区
城开·青菱城市花园2期,商务住宅,住宅区,114.276559,30.469998,湖北省,武汉市,洪山区
正商金域世家,商务住宅,住宅区,114.282938,30.468167,湖北省,武汉市,洪山区
金地保利褐石公馆,商务住宅,住宅区,114.278774,30.468296,湖北省,武汉市,洪山区
景瑞·天赋滨江,商务住宅,住宅区,114.263529,30.469613,湖北省,武汉市,洪山区
彩虹郡,商务住宅,住宅区,114.292657,30.457366,湖北省,武汉市,洪山区
楚天都市沁园,商务住宅,住宅区,114.291576,30.455226,湖北省,武汉市,洪山区
彩虹郡1期,商务住宅,住宅区,114.295307,30.456415,湖北省,武汉市,洪山区
李桥3区,商务住宅,住宅区,114.314077,30.456552,湖北省,武汉市,洪山区
板桥小区,商务住宅,住宅区,114.316585,30.467665,湖北省,武汉市,洪山区
保利心语,商务住宅,住宅区,114.316396,30.470769,湖北省,武汉市,洪山区
板桥新村,商务住宅,住宅区,114.310039,30.469455,湖北省,武汉市,洪山区
东原乐见城,商务住宅,住宅区,114.314743,30.466327,湖北省,武汉市,洪山区
金天国际,商务住宅,住宅区,114.315804,30.46923,湖北省,武汉市,洪山区
保利·心语10区,商务住宅,住宅区,114.314623,30.468941,湖北省,武汉市,洪山区
东原·启城,商务住宅,住宅区,114.290084,30.466508,湖北省,武汉市,洪山区
胜利丰园,商务住宅,住宅区,114.291662,30.462642,湖北省,武汉市,洪山区
光谷·长江青年城,商务住宅,住宅区,114.468346,30.420815,湖北省,武汉市,江夏区
美的·云筑,商务住宅,住宅区,114.453774,30.424045,湖北省,武汉市,江夏区
正荣悦璟台,商务住宅,住宅区,114.454036,30.42727,湖北省,武汉市,江夏区
佛祖岭E区,商务住宅,住宅区,114.454252,30.435226,湖北省,武汉市,江夏区
佛祖岭G区,商务住宅,住宅区,114.455669,30.432329,湖北省,武汉市,江夏区
佛祖岭F区,商务住宅,住宅区,114.45534,30.43789,湖北省,武汉市,江夏区
大邱小区,商务住宅,住宅区,114.454194,30.44903,湖北省,武汉市,江夏区
大邱村新社区4期,商务住宅,住宅区,114.455824,30.447711,湖北省,武汉市,江夏区
万年台小区,商务住宅,住宅区,114.546328,30.463954,湖北省,武汉市,江夏区
桃花源南区,商务住宅,住宅区,114.536516,30.477321,湖北省,武汉市,江夏区
侨梦园,商务住宅,住宅区,114.541219,30.478615,湖北省,武汉市,江夏区
光谷未来广场,商务住宅,住宅区,114.551056,30.478543,湖北省,武汉市,江夏区
桃花源小区,商务住宅,住宅区,114.53599,30.479997,湖北省,武汉市,江夏区
武汉安朴悦庭公寓,商务住宅,住宅区,114.529511,30.486422,湖北省,武汉市,江夏区
龙湖光谷城F区,商务住宅,住宅区,114.498792,30.475868,湖北省,武汉市,洪山区
民发·盛特区,商务住宅,住宅区,114.508662,30.472331,湖北省,武汉市,洪山区
世界城·创世界,商务住宅,住宅区,114.508837,30.479509,湖北省,武汉市,洪山区
翡丽天玺,商务住宅,住宅区,114.52593,30.479023,湖北省,武汉市,江夏区
绿地光谷星河绘,商务住宅,住宅区,114.522915,30.478477,湖北省,武汉市,江夏区
碧桂园云玺,商务住宅,住宅区,114.514738,30.478605,湖北省,武汉市,洪山区
光谷学府,商务住宅,住宅区,114.521758,30.477029,湖北省,武汉市,江夏区
朗诗·里程,商务住宅,住宅区,114.518556,30.479502,湖北省,武汉市,洪山区
碧桂园云玺一期,商务住宅,住宅区,114.515694,30.479886,湖北省,武汉市,洪山区
南山墅,商务住宅,住宅区,114.523433,30.483064,湖北省,武汉市,江夏区
华诚里小区,商务住宅,住宅区,114.519272,30.483571,湖北省,武汉市,洪山区
光谷·南山府,商务住宅,住宅区,114.52694,30.483857,湖北省,武汉市,江夏区
联投驿园,商务住宅,住宅区,114.514709,30.485084,湖北省,武汉市,洪山区
光谷188国际小区,商务住宅,住宅区,114.518123,30.483249,湖北省,武汉市,洪山区
龙湖光谷城A区,商务住宅,住宅区,114.499577,30.479602,湖北省,武汉市,洪山区
恺德中心,商务住宅,住宅区,114.501427,30.486395,湖北省,武汉市,洪山区
芙蓉兴盛光谷工业园区三期店,商务住宅,住宅区,114.464235,30.455103,湖北省,武汉市,江夏区
龙净小筑,商务住宅,住宅区,114.475809,30.462652,湖北省,武汉市,洪山区
太阳城,商务住宅,住宅区,114.473495,30.455579,湖北省,武汉市,江夏区
葛洲坝·太阳城,商务住宅,住宅区,114.474999,30.456325,湖北省,武汉市,江夏区
光谷·正荣府,商务住宅,住宅区,114.494124,30.46235,湖北省,武汉市,洪山区
仁尚里小区,商务住宅,住宅区,114.485473,30.468427,湖北省,武汉市,洪山区
绿地国际理想城,商务住宅,住宅区,114.489259,30.468743,湖北省,武汉市,洪山区
新城璞越门第,商务住宅,住宅区,114.491714,30.466222,湖北省,武汉市,洪山区
光谷澎湃城奥山府,商务住宅,住宅区,114.484172,30.465187,湖北省,武汉市,洪山区
新城璞樾门第,商务住宅,住宅区,114.488809,30.465279,湖北省,武汉市,洪山区
烽云慧城,商务住宅,住宅区,114.483501,30.467967,湖北省,武汉市,洪山区
藏雅园,商务住宅,住宅区,114.483363,30.466705,湖北省,武汉市,洪山区
恺德·光谷熙园,商务住宅,住宅区,114.483855,30.472802,湖北省,武汉市,洪山区
正荣恒瑞御峯,商务住宅,住宅区,114.497126,30.47311,湖北省,武汉市,洪山区
碧桂园云境,商务住宅,住宅区,114.484323,30.474043,湖北省,武汉市,洪山区
龙湖光谷城,商务住宅,住宅区,114.498736,30.476221,湖北省,武汉市,洪山区
光谷满庭春,商务住宅,住宅区,114.490963,30.472951,湖北省,武汉市,洪山区
力高·雍华年,商务住宅,住宅区,114.492282,30.47876,湖北省,武汉市,洪山区
绿地光谷中心城尚峰园,商务住宅,住宅区,114.498991,30.482814,湖北省,武汉市,洪山区
荷叶山小区,商务住宅,住宅区,114.454297,30.501445,湖北省,武汉市,洪山区
楚源国际M+寓,商务住宅,住宅区,114.469814,30.48858,湖北省,武汉市,洪山区
中建星光城二期,商务住宅,住宅区,114.482598,30.495484,湖北省,武汉市,洪山区
九峰新区,商务住宅,住宅区,114.484404,30.502214,湖北省,武汉市,洪山区
九峰街·明畅里小区,商务住宅,住宅区,114.484177,30.497962,湖北省,武汉市,洪山区
九峰街清和里小区,商务住宅,住宅区,114.488722,30.499019,湖北省,武汉市,洪山区
葛洲坝·卡尔顿山庄,商务住宅,住宅区,114.446067,30.50675,湖北省,武汉市,洪山区
恒大华府A区,商务住宅,住宅区,114.444219,30.505803,湖北省,武汉市,洪山区
森林花园小区A4栋,商务住宅,住宅区,114.44072,30.505284,湖北省,武汉市,洪山区
葛洲坝·世纪花园,商务住宅,住宅区,114.450425,30.504688,湖北省,武汉市,洪山区
现代森林花园,商务住宅,住宅区,114.438479,30.504749,湖北省,武汉市,洪山区
沁源桩景,商务住宅,住宅区,114.464332,30.51805,湖北省,武汉市,洪山区
东湖风景区马鞍山森林湿地公园东都陈村31号院,商务住宅,住宅区,114.461018,30.520449,湖北省,武汉市,洪山区
国采光立方,商务住宅,住宅区,114.512245,30.493743,湖北省,武汉市,洪山区
中州府,商务住宅,住宅区,114.508871,30.488669,湖北省,武汉市,洪山区
国采中心,商务住宅,住宅区,114.511863,30.490705,湖北省,武汉市,洪山区
光和创谷,商务住宅,住宅区,114.506923,30.488015,湖北省,武汉市,洪山区
中建光谷之星,商务住宅,住宅区,114.516357,30.492177,湖北省,武汉市,洪山区
光谷崇文中心,商务住宅,住宅区,114.515432,30.487434,湖北省,武汉市,洪山区
未来科技城人才公寓,商务住宅,住宅区,114.53843,30.494247,湖北省,武汉市,江夏区
之寓·未来,商务住宅,住宅区,114.530701,30.499211,湖北省,武汉市,江夏区
武汉未来科技城青年社区,商务住宅,住宅区,114.532251,30.499908,湖北省,武汉市,江夏区
中城龙山湖,商务住宅,住宅区,114.535995,30.501355,湖北省,武汉市,江夏区
龙山郡,商务住宅,住宅区,114.53775,30.497367,湖北省,武汉市,江夏区
花城家园荷园,商务住宅,住宅区,114.525716,30.529895,湖北省,武汉市,洪山区
交投华园,商务住宅,住宅区,114.525958,30.536027,湖北省,武汉市,洪山区
联投光谷瑞园,商务住宅,住宅区,114.510368,30.532183,湖北省,武汉市,洪山区
联投青年城,商务住宅,住宅区,114.511761,30.535737,湖北省,武汉市,洪山区
安屿那,商务住宅,住宅区,114.501261,30.543078,湖北省,武汉市,洪山区
碧桂园生态城·左岸,商务住宅,住宅区,114.515577,30.542742,湖北省,武汉市,洪山区
碧桂园生态城·东境,商务住宅,住宅区,114.516112,30.547175000000003,湖北省,武汉市,洪山区
碧桂园生态城观澜,商务住宅,住宅区,114.504062,30.549638,湖北省,武汉市,洪山区
碧桂园·生态城·桃花源2区,商务住宅,住宅区,114.502021,30.551121,湖北省,武汉市,洪山区
碧桂园·生态城剑桥郡,商务住宅,住宅区,114.499762,30.5526,湖北省,武汉市,洪山区
长江存储国际小区,商务住宅,住宅区,114.594673,30.494396,湖北省,武汉市,洪山区
长江存储国际社区长存花园,商务住宅,住宅区,114.595812,30.493066,湖北省,武汉市,洪山区
中海·光谷东麓,商务住宅,住宅区,114.603482,30.49178,湖北省,武汉市,洪山区
左岭街星芯小区,商务住宅,住宅区,114.622227,30.490832,湖北省,武汉市,洪山区
左岭新城·黄陂岭小区一小区,商务住宅,住宅区,114.626142,30.490559,湖北省,武汉市,洪山区
泽龙轩,商务住宅,住宅区,114.446983,30.578604,湖北省,武汉市,洪山区
武东三村,商务住宅,住宅区,114.464142,30.580605,湖北省,武汉市,青山区
兴岭花园,商务住宅,住宅区,114.465362,30.58293,湖北省,武汉市,青山区
新三村社区,商务住宅,住宅区,114.465501,30.581176,湖北省,武汉市,青山区
武东馨居,商务住宅,住宅区,114.459217,30.585866,湖北省,武汉市,青山区
船机小区,商务住宅,住宅区,114.46601,30.582212,湖北省,武汉市,青山区
江城尚品,商务住宅,住宅区,114.46367,30.580829,湖北省,武汉市,青山区
船机璟园,商务住宅,住宅区,114.463919,30.580818,湖北省,武汉市,青山区
科技公寓,商务住宅,住宅区,114.457219,30.580675,湖北省,武汉市,青山区
新武东社区,商务住宅,住宅区,114.44301,30.581176,湖北省,武汉市,洪山区
龚家岭小区,商务住宅,住宅区,114.442999,30.584376,湖北省,武汉市,洪山区
裕锦花园,商务住宅,住宅区,114.443156,30.583812,湖北省,武汉市,洪山区
武东小区,商务住宅,住宅区,114.459075,30.586818,湖北省,武汉市,青山区
武东街航舵小区,商务住宅,住宅区,114.460276,30.589270000000003,湖北省,武汉市,青山区
重工小区,商务住宅,住宅区,114.457551,30.587731,湖北省,武汉市,青山区
白玉山泰乐物业社区,商务住宅,住宅区,114.482683,30.609619,湖北省,武汉市,青山区
康美小区,商务住宅,住宅区,114.482233,30.604885,湖北省,武汉市,青山区
白玉山1街坊,商务住宅,住宅区,114.482125,30.604102,湖北省,武汉市,青山区
白玉山街光明攀建社区蔡家湾社区,商务住宅,住宅区,114.485466,30.611681,湖北省,武汉市,青山区
攀建新园,商务住宅,住宅区,114.477367,30.613107,湖北省,武汉市,青山区
武汉国博新城,商务住宅,住宅区,114.229075,30.505334,湖北省,武汉市,汉阳区
城投融创国博城售楼部,商务住宅,住宅区,114.229885,30.504979,湖北省,武汉市,汉阳区
卓越大江,商务住宅,住宅区,114.24743,30.512668,湖北省,武汉市,汉阳区
三桥小区,商务住宅,住宅区,114.268219,30.492048,湖北省,武汉市,洪山区
城建.天惠园,商务住宅,住宅区,114.270525,30.488861,湖北省,武汉市,洪山区
长江鑫都,商务住宅,住宅区,114.267315,30.487681,湖北省,武汉市,洪山区
三桥社区林机社区,商务住宅,住宅区,114.267221,30.492707,湖北省,武汉市,洪山区
三桥社区玻璃钢社区,商务住宅,住宅区,114.26699,30.487679,湖北省,武汉市,洪山区
长利小区,商务住宅,住宅区,114.281145,30.491183,湖北省,武汉市,洪山区
青润花园,商务住宅,住宅区,114.283112,30.488032,湖北省,武汉市,洪山区
中南管道社区,商务住宅,住宅区,114.280089,30.492426,湖北省,武汉市,洪山区
武焦社区,商务住宅,住宅区,114.283081,30.489299,湖北省,武汉市,洪山区
建材社区新材社区,商务住宅,住宅区,114.284585,30.490183,湖北省,武汉市,洪山区
中建铂公馆,商务住宅,住宅区,114.27918,30.489395,湖北省,武汉市,洪山区
万科云城,商务住宅,住宅区,114.283229,30.494574,湖北省,武汉市,洪山区
中建铂公馆,商务住宅,住宅区,114.280059,30.487676,湖北省,武汉市,洪山区
菁英城,商务住宅,住宅区,114.27644,30.490396,湖北省,武汉市,洪山区
武焦和谐社区,商务住宅,住宅区,114.281847,30.492681,湖北省,武汉市,洪山区
中大长江紫都紫境,商务住宅,住宅区,114.276736,30.50398,湖北省,武汉市,武昌区
堤后街社区,商务住宅,住宅区,114.275853,30.50088,湖北省,武汉市,武昌区
城投联投誉江南,商务住宅,住宅区,114.270765,30.496137,湖北省,武汉市,洪山区
米兰小镇东区,商务住宅,住宅区,114.196934,30.525452,湖北省,武汉市,蔡甸区
开来·都市丰景,商务住宅,住宅区,114.199652,30.521433,湖北省,武汉市,汉阳区
中建五局三公司四新方岛项目,商务住宅,住宅区,114.206148,30.525075,湖北省,武汉市,汉阳区
海格公馆,商务住宅,住宅区,114.203785,30.521461,湖北省,武汉市,汉阳区
卧龙·墨水湖边,商务住宅,住宅区,114.232802,30.529569,湖北省,武汉市,汉阳区
卧龙墨水湖边1期,商务住宅,住宅区,114.230534,30.530226,湖北省,武汉市,汉阳区
钰龙·旭辉半岛璞园,商务住宅,住宅区,114.225958,30.545523,湖北省,武汉市,汉阳区
钰龙旭辉半岛璞园,商务住宅,住宅区,114.225224,30.545745,湖北省,武汉市,汉阳区
钰龙旭辉半岛沁园,商务住宅,住宅区,114.22297,30.545603,湖北省,武汉市,汉阳区
水墨清华-二期5号岗亭,商务住宅,住宅区,114.210614,30.544578,湖北省,武汉市,汉阳区
南湖庄园·半岛花园,商务住宅,住宅区,114.346894,30.490089,湖北省,武汉市,洪山区
保利蓝海郡,商务住宅,住宅区,114.373583,30.493192,湖北省,武汉市,洪山区
城投·瀚城南2区,商务住宅,住宅区,114.367889,30.495952,湖北省,武汉市,洪山区
南湖·锦园,商务住宅,住宅区,114.375507,30.494619,湖北省,武汉市,洪山区
中博南湖康城,商务住宅,住宅区,114.375955,30.491908,湖北省,武汉市,洪山区
尤李小区,商务住宅,住宅区,114.34954,30.503101,湖北省,武汉市,洪山区
当代·天誉BIO亲生命体验中心,商务住宅,住宅区,114.361184,30.499843,湖北省,武汉市,洪山区
南湖假日,商务住宅,住宅区,114.357025,30.504195,湖北省,武汉市,洪山区
万科翡翠云台,商务住宅,住宅区,114.360583,30.502012,湖北省,武汉市,洪山区
南湖·梦里水乡,商务住宅,住宅区,114.351732,30.502597,湖北省,武汉市,洪山区
光谷陆景园,商务住宅,住宅区,114.423982,30.493176,湖北省,武汉市,洪山区
宇峰花园,商务住宅,住宅区,114.423639,30.488228000000003,湖北省,武汉市,洪山区
迎宾花园,商务住宅,住宅区,114.432896,30.489599,湖北省,武汉市,江夏区
梓洲花园,商务住宅,住宅区,114.430405,30.491458,湖北省,武汉市,江夏区
天慧社区,商务住宅,住宅区,114.42506,30.489091,湖北省,武汉市,洪山区
关山街葛光社区,商务住宅,住宅区,114.422709,30.490051,湖北省,武汉市,洪山区
恺德光谷瑜园,商务住宅,住宅区,114.431128,30.4913,湖北省,武汉市,江夏区
喻园,商务住宅,住宅区,114.424676,30.516975,湖北省,武汉市,洪山区
虹景花园C区,商务住宅,住宅区,114.423743,30.513656,湖北省,武汉市,洪山区
喻园小区一期,商务住宅,住宅区,114.424813,30.516715,湖北省,武汉市,洪山区
菱角湖社区,商务住宅,住宅区,114.393608,30.5295,湖北省,武汉市,洪山区
鑫源雅居,商务住宅,住宅区,114.394835,30.534379,湖北省,武汉市,洪山区
东湖阳光,商务住宅,住宅区,114.386935,30.533229,湖北省,武汉市,洪山区
欣雅园,商务住宅,住宅区,114.392154,30.531063000000003,湖北省,武汉市,洪山区
枫叶园,商务住宅,住宅区,114.39019,30.5328,湖北省,武汉市,洪山区
东湖阳光湖畔居,商务住宅,住宅区,114.385964,30.533308,湖北省,武汉市,洪山区
观湖阁,商务住宅,住宅区,114.424842,30.536611,湖北省,武汉市,洪山区
东湖家-听涛轩,商务住宅,住宅区,114.426223,30.535016,湖北省,武汉市,洪山区
九号公寓,商务住宅,住宅区,114.413137,30.531344,湖北省,武汉市,洪山区
东升公寓,商务住宅,住宅区,114.413699,30.530826,湖北省,武汉市,洪山区
融侨华府,商务住宅,住宅区,114.316984,30.569674000000003,湖北省,武汉市,武昌区
阳光水岸,商务住宅,住宅区,114.318332,30.56189,湖北省,武汉市,武昌区
水岸国际·时代上城,商务住宅,住宅区,114.319396,30.569196,湖北省,武汉市,武昌区
水岸国际·澜桥公馆2期,商务住宅,住宅区,114.325396,30.569785,湖北省,武汉市,武昌区
黄鹂社区,商务住宅,住宅区,114.369362,30.561378,湖北省,武汉市,武昌区
林湖景园,商务住宅,住宅区,114.393137,30.599686,湖北省,武汉市,洪山区
天兴洲绿岛社区,商务住宅,住宅区,114.405877,30.603603,湖北省,武汉市,洪山区
华侨城·原岸,商务住宅,住宅区,114.404445,30.596189,湖北省,武汉市,武昌区
邻湖壹方·民宿天地,商务住宅,住宅区,114.422308,30.603191,湖北省,武汉市,洪山区
白马馨居2期,商务住宅,住宅区,114.422838,30.599913,湖北省,武汉市,洪山区
万科东湖堤白,商务住宅,住宅区,114.414048,30.61179,湖北省,武汉市,洪山区
东湖金茂府,商务住宅,住宅区,114.418863,30.603914,湖北省,武汉市,洪山区
冶金大道200号社区,商务住宅,住宅区,114.435605,30.619212,湖北省,武汉市,青山区
楚天都市春水行云,商务住宅,住宅区,114.42606,30.611965,湖北省,武汉市,洪山区
杨春湖景园2期,商务住宅,住宅区,114.431749,30.617639,湖北省,武汉市,洪山区
厂前村还建社区,商务住宅,住宅区,114.431981,30.619455,湖北省,武汉市,洪山区
华侨城欢乐天际,商务住宅,住宅区,114.406798,30.607806,湖北省,武汉市,洪山区
东湖雅园,商务住宅,住宅区,114.403434,30.606368,湖北省,武汉市,洪山区
团结大道东方尚锦B区,商务住宅,住宅区,114.397027,30.606481,湖北省,武汉市,洪山区
团结大道东方尚景锦B区,商务住宅,住宅区,114.397035,30.607138,湖北省,武汉市,洪山区
富华社区,商务住宅,住宅区,114.32872,30.591073,湖北省,武汉市,武昌区
三角综合楼社区,商务住宅,住宅区,114.331217,30.587545,湖北省,武汉市,武昌区
滨江园1期,商务住宅,住宅区,114.318991,30.616904,湖北省,武汉市,江岸区
滨江园2期,商务住宅,住宅区,114.321531,30.61944,湖北省,武汉市,江岸区
绿城黄浦湾,商务住宅,住宅区,114.319117,30.620392,湖北省,武汉市,江岸区
武汉天地云廷,商务住宅,住宅区,114.317403,30.614649,湖北省,武汉市,江岸区
滨水颐家,商务住宅,住宅区,114.320355,30.618255,湖北省,武汉市,江岸区
荷塘月色,商务住宅,住宅区,114.248974,30.561832,湖北省,武汉市,汉阳区
龙灯里社区,商务住宅,住宅区,114.244834,30.560737000000003,湖北省,武汉市,汉阳区
万科金域国际,商务住宅,住宅区,114.245079,30.554185,湖北省,武汉市,汉阳区
五里铁路和谐花园,商务住宅,住宅区,114.245126,30.555404,湖北省,武汉市,汉阳区
晴川街中心戒毒小区,商务住宅,住宅区,114.248836,30.556868,湖北省,武汉市,汉阳区
融侨锦江,商务住宅,住宅区,114.223046,30.577696,湖北省,武汉市,硚口区
秦水名邸,商务住宅,住宅区,114.224653,30.574714,湖北省,武汉市,硚口区
广电·江湾新城,商务住宅,住宅区,114.199215,30.587148,湖北省,武汉市,硚口区
汉水公寓,商务住宅,住宅区,114.268255,30.55998,湖北省,武汉市,汉阳区
汉汽小区,商务住宅,住宅区,114.271042,30.558366,湖北省,武汉市,汉阳区
江汉桥社区,商务住宅,住宅区,114.26784,30.559971,湖北省,武汉市,汉阳区
江汉桥社区,商务住宅,住宅区,114.268758,30.559121,湖北省,武汉市,汉阳区
汉南小区,商务住宅,住宅区,114.274216,30.559308,湖北省,武汉市,汉阳区
龟北花园,商务住宅,住宅区,114.273044,30.556397,湖北省,武汉市,汉阳区
汉南社区,商务住宅,住宅区,114.271915,30.559852,湖北省,武汉市,汉阳区
联投中心,商务住宅,住宅区,114.313679,30.570415,湖北省,武汉市,武昌区
鄂电村北区,商务住宅,住宅区,114.315653,30.573857,湖北省,武汉市,武昌区
新河小区,商务住宅,住宅区,114.315908,30.575245,湖北省,武汉市,武昌区
华康里社区,商务住宅,住宅区,114.314989,30.572315,湖北省,武汉市,武昌区
华新里小区,商务住宅,住宅区,114.315417,30.572961,湖北省,武汉市,武昌区
武汉江滩,商务住宅,住宅区,114.304047,30.585777,湖北省,武汉市,江岸区
添翼园,商务住宅,住宅区,114.252994,30.587187,湖北省,武汉市,江汉区
万松街凌云小区,商务住宅,住宅区,114.246977,30.587814,湖北省,武汉市,江汉区
发展小区,商务住宅,住宅区,114.227292,30.599836,湖北省,武汉市,硚口区
云飞雅园,商务住宅,住宅区,114.240252,30.600138,湖北省,武汉市,江汉区
汉西花园,商务住宅,住宅区,114.227911,30.597576,湖北省,武汉市,江汉区
汉西苑社区,商务住宅,住宅区,114.227641,30.597209,湖北省,武汉市,江汉区
铁路小区,商务住宅,住宅区,114.227102,30.597193,湖北省,武汉市,江汉区
发展一村,商务住宅,住宅区,114.22727,30.598401,湖北省,武汉市,江汉区
铁路社区,商务住宅,住宅区,114.227732,30.597371,湖北省,武汉市,江汉区
泛海国际居住区,商务住宅,住宅区,114.239277,30.601895,湖北省,武汉市,江汉区
泛海国际竹海园,商务住宅,住宅区,114.240707,30.601906,湖北省,武汉市,江汉区
泛海桂府,商务住宅,住宅区,114.232841,30.599322,湖北省,武汉市,江汉区
武汉CBD泛海国际居住区,商务住宅,住宅区,114.236488,30.600232,湖北省,武汉市,江汉区
泛海国际松海园,商务住宅,住宅区,114.236115,30.601048,湖北省,武汉市,江汉区
常码头鑫城汇H2区,商务住宅,住宅区,114.228361,30.603011,湖北省,武汉市,硚口区
蓝天花园,商务住宅,住宅区,114.240442,30.602948,湖北省,武汉市,江汉区
金湖听语,商务住宅,住宅区,114.196759,30.638417,湖北省,武汉市,东西湖区
万科高尔夫城市花园,商务住宅,住宅区,114.212741,30.643285,湖北省,武汉市,东西湖区
银湖翡翠三期倚湖轩,商务住宅,住宅区,114.213564,30.637242,湖北省,武汉市,东西湖区
中交·泓园,商务住宅,住宅区,114.217093,30.63876,湖北省,武汉市,东西湖区
汀香水榭,商务住宅,住宅区,114.21662,30.652501,湖北省,武汉市,东西湖区
银湖九号,商务住宅,住宅区,114.22056,30.649587,湖北省,武汉市,东西湖区
航天·银湖湾,商务住宅,住宅区,114.222513,30.648405,湖北省,武汉市,东西湖区
碧海花园,商务住宅,住宅区,114.199026,30.649299,湖北省,武汉市,东西湖区
宜居阁,商务住宅,住宅区,114.198464,30.648138000000003,湖北省,武汉市,东西湖区
海云园,商务住宅,住宅区,114.196166,30.647859,湖北省,武汉市,东西湖区
碧波园,商务住宅,住宅区,114.203324,30.648937,湖北省,武汉市,东西湖区
地铁时代·常青城D区,商务住宅,住宅区,114.258344,30.659616,湖北省,武汉市,东西湖区
将军新村4期,商务住宅,住宅区,114.256749,30.654494,湖北省,武汉市,东西湖区
碧桂园·白鹭湾,商务住宅,住宅区,114.269913,30.661157,湖北省,武汉市,东西湖区
梦湖华园,商务住宅,住宅区,114.282813,30.655434,湖北省,武汉市,江岸区
百步亭金桥汇2,商务住宅,住宅区,114.286515,30.654669,湖北省,武汉市,江岸区
汇悦天地,商务住宅,住宅区,114.284035,30.654927,湖北省,武汉市,江岸区
余华岭佳园,商务住宅,住宅区,114.285699,30.659153,湖北省,武汉市,江岸区
碧桂园海昌,商务住宅,住宅区,114.273591,30.659565,湖北省,武汉市,东西湖区
塔子湖·兴隆园,商务住宅,住宅区,114.281746,30.653223,湖北省,武汉市,江岸区
碧桂园海昌天澜2期,商务住宅,住宅区,114.27353,30.660114,湖北省,武汉市,东西湖区
保利生态公园家,商务住宅,住宅区,114.282296,30.664843,湖北省,武汉市,东西湖区
碧桂园海昌天澜,商务住宅,住宅区,114.275692,30.661941,湖北省,武汉市,东西湖区
梦想特区·宏图里,商务住宅,住宅区,114.277078,30.669498,湖北省,武汉市,东西湖区
碧桂园海昌·克拉公馆,商务住宅,住宅区,114.271644,30.662545,湖北省,武汉市,东西湖区
三金潭·福星花园,商务住宅,住宅区,114.301028,30.667409000000003,湖北省,武汉市,江岸区
天纵·半岛蓝湾,商务住宅,住宅区,114.266418,30.670439,湖北省,武汉市,东西湖区
碧家国际小区,商务住宅,住宅区,114.274203,30.678784,湖北省,武汉市,东西湖区
银湖·水印桃源,商务住宅,住宅区,114.214931,30.667181,湖北省,武汉市,东西湖区
万丰·丰泽园,商务住宅,住宅区,114.223918,30.662405,湖北省,武汉市,东西湖区
顺驰·泊林,商务住宅,住宅区,114.209569,30.666469,湖北省,武汉市,东西湖区
中部慧谷,商务住宅,住宅区,114.203498,30.669982,湖北省,武汉市,东西湖区
颐和花园,商务住宅,住宅区,114.252799,30.656804,湖北省,武汉市,东西湖区
地铁时代·常青城,商务住宅,住宅区,114.254961,30.659672,湖北省,武汉市,东西湖区
将军新村,商务住宅,住宅区,114.255072,30.653364,湖北省,武汉市,东西湖区
将军新村5期,商务住宅,住宅区,114.253318,30.655892,湖北省,武汉市,东西湖区
愿景城,商务住宅,住宅区,114.246969,30.656873,湖北省,武汉市,东西湖区
凯旋名居,商务住宅,住宅区,114.24757,30.653755,湖北省,武汉市,东西湖区
滨江园3期,商务住宅,住宅区,114.323692,30.621997,湖北省,武汉市,江岸区
华润瑞府,商务住宅,住宅区,114.319204,30.621103,湖北省,武汉市,江岸区
劳动新二村,商务住宅,住宅区,114.318827,30.627946,湖北省,武汉市,江岸区
御玺滨江,商务住宅,住宅区,114.31909,30.623099,湖北省,武汉市,江岸区
谊通·滨江院子,商务住宅,住宅区,114.321894,30.62018,湖北省,武汉市,江岸区
怡江园,商务住宅,住宅区,114.359012,30.621546,湖北省,武汉市,青山区
艺城·紫金滨江,商务住宅,住宅区,114.361403,30.62235,湖北省,武汉市,青山区
武汉江山,商务住宅,住宅区,114.359727,30.624949,湖北省,武汉市,青山区
武汉江山,商务住宅,住宅区,114.358153,30.623193,湖北省,武汉市,青山区
奥山世纪城·澜橼,商务住宅,住宅区,114.360218,30.62059,湖北省,武汉市,青山区
大华·滨江天地铂金瑞府,商务住宅,住宅区,114.361863,30.624547,湖北省,武汉市,青山区
御江壹品青山樽,商务住宅,住宅区,114.376735,30.634397,湖北省,武汉市,青山区
东兴天地D区,商务住宅,住宅区,114.3692,30.629369,湖北省,武汉市,青山区
御江壹品青山印,商务住宅,住宅区,114.374065,30.629743,湖北省,武汉市,青山区
望江楼,商务住宅,住宅区,114.340177,30.642598000000003,湖北省,武汉市,江岸区
丹南小区,商务住宅,住宅区,114.334841,30.643093,湖北省,武汉市,江岸区
冶金街楠姆小区,商务住宅,住宅区,114.410485,30.629308,湖北省,武汉市,青山区
碧园花园北区,商务住宅,住宅区,114.408366,30.630171,湖北省,武汉市,青山区
新长江香樟林,商务住宅,住宅区,114.42326,30.647936,湖北省,武汉市,青山区
临江雅居,商务住宅,住宅区,114.390499,30.64254,湖北省,武汉市,青山区
蒋家墩小区,商务住宅,住宅区,114.389794,30.640702,湖北省,武汉市,青山区
新奥·依江畔园,商务住宅,住宅区,114.383224,30.637456,湖北省,武汉市,青山区
热电小区,商务住宅,住宅区,114.387735,30.639041,湖北省,武汉市,青山区
热电小区西区,商务住宅,住宅区,114.3892,30.637269,湖北省,武汉市,青山区
新光小区,商务住宅,住宅区,114.390121,30.640306,湖北省,武汉市,青山区
16街坊,商务住宅,住宅区,114.39255,30.640536,湖北省,武汉市,青山区
二街小区,商务住宅,住宅区,114.407481,30.645661,湖北省,武汉市,青山区
红钢城四街,商务住宅,住宅区,114.401642,30.645864,湖北省,武汉市,青山区
四街坊,商务住宅,住宅区,114.403925,30.645371,湖北省,武汉市,青山区
武钢科技人才园,商务住宅,住宅区,114.40068,30.644838,湖北省,武汉市,青山区
中交·江锦湾,商务住宅,住宅区,114.403873,30.646685,湖北省,武汉市,青山区
源馨园,商务住宅,住宅区,114.319479,30.689965,湖北省,武汉市,黄陂区
府河明珠,商务住宅,住宅区,114.319201,30.690998,湖北省,武汉市,黄陂区
瑞祥熙园,商务住宅,住宅区,114.317468,30.690697,湖北省,武汉市,黄陂区
汉北花园,商务住宅,住宅区,114.319174,30.692523,湖北省,武汉市,黄陂区
滠水·春晓,商务住宅,住宅区,114.354316,30.708407,湖北省,武汉市,黄陂区
花苑社区,商务住宅,住宅区,114.352454,30.709644,湖北省,武汉市,黄陂区
怀塔雅园,商务住宅,住宅区,114.351725,30.710486000000003,湖北省,武汉市,黄陂区
长江新城·金寓社区,商务住宅,住宅区,114.370466,30.714095,湖北省,武汉市,黄陂区
汉北·轻轨1号,商务住宅,住宅区,114.333482,30.70978,湖北省,武汉市,黄陂区
阳逻湾社区,商务住宅,住宅区,114.332493,30.706767,湖北省,武汉市,黄陂区
新港湾小区,商务住宅,住宅区,114.345973,30.711001,湖北省,武汉市,黄陂区
银禾广场,商务住宅,住宅区,114.325402,30.714684,湖北省,武汉市,黄陂区
天纵时代城,商务住宅,住宅区,114.329527,30.71563,湖北省,武汉市,黄陂区
金马·长江凯旋城,商务住宅,住宅区,114.404621,30.692362,湖北省,武汉市,黄陂区
汉口御江澜庭,商务住宅,住宅区,114.406479,30.693687,湖北省,武汉市,黄陂区
汉北立方城,商务住宅,住宅区,114.407182,30.700839,湖北省,武汉市,黄陂区
青年人才公寓,商务住宅,住宅区,114.405397,30.697632,湖北省,武汉市,黄陂区
宜居花园,商务住宅,住宅区,114.407011,30.697556,湖北省,武汉市,黄陂区
长海公寓,商务住宅,住宅区,114.407217,30.702588,湖北省,武汉市,黄陂区
彩云理想城,商务住宅,住宅区,114.40483,30.695776,湖北省,武汉市,黄陂区
汉新社区,商务住宅,住宅区,114.413039,30.694882,湖北省,武汉市,黄陂区
天舜翰林雅居,商务住宅,住宅区,114.425368,30.702468,湖北省,武汉市,黄陂区
五通口社区东区,商务住宅,住宅区,114.425668,30.700492,湖北省,武汉市,黄陂区
愉景湾,商务住宅,住宅区,114.423742,30.715002,湖北省,武汉市,黄陂区
汉北玺园,商务住宅,住宅区,114.412862,30.719455,湖北省,武汉市,黄陂区
汉北大全景,商务住宅,住宅区,114.410834,30.71854,湖北省,武汉市,黄陂区
碧悦湾,商务住宅,住宅区,114.410003,30.715034000000003,湖北省,武汉市,黄陂区
南德·长江城,商务住宅,住宅区,114.412428,30.716185,湖北省,武汉市,黄陂区
青龙,商务住宅,住宅区,114.392226,30.705086,湖北省,武汉市,黄陂区
下畈新园,商务住宅,住宅区,114.392281,30.706857,湖北省,武汉市,黄陂区
联投·汉口郡,商务住宅,住宅区,114.407908,30.724992,湖北省,武汉市,黄陂区
高车旗杆湾社区,商务住宅,住宅区,114.396193,30.730007,湖北省,武汉市,黄陂区
联投·汉口郡御湖,商务住宅,住宅区,114.407011,30.728889,湖北省,武汉市,黄陂区
保亿未来长江城,商务住宅,住宅区,114.392054,30.733799,湖北省,武汉市,黄陂区
凌峰·汉北首府,商务住宅,住宅区,114.350248,30.721005,湖北省,武汉市,黄陂区
梨韵华府,商务住宅,住宅区,114.352426,30.722702,湖北省,武汉市,黄陂区
智慧城,商务住宅,住宅区,114.349262,30.725202,湖北省,武汉市,黄陂区
城投丰山府,商务住宅,住宅区,114.232813,30.707515,湖北省,武汉市,黄陂区
绿地天河国际会展城,商务住宅,住宅区,114.227275,30.710122,湖北省,武汉市,黄陂区
珑璟轩,商务住宅,住宅区,114.249432,30.711383,湖北省,武汉市,黄陂区
恒大龙城,商务住宅,住宅区,114.231509,30.718694,湖北省,武汉市,黄陂区
城投•大桥龙城,商务住宅,住宅区,114.234447,30.712494,湖北省,武汉市,黄陂区
南德·榜样学府2期,商务住宅,住宅区,114.307411,30.707799,湖北省,武汉市,黄陂区
南德榜样学府,商务住宅,住宅区,114.305888,30.70718,湖北省,武汉市,黄陂区
F水星城,商务住宅,住宅区,114.287641,30.711634,湖北省,武汉市,黄陂区
颐景康城,商务住宅,住宅区,114.262506,30.720463,湖北省,武汉市,黄陂区
城开·天玺花园,商务住宅,住宅区,114.268648,30.72033,湖北省,武汉市,黄陂区
汉口湖畔小区1期,商务住宅,住宅区,114.258388,30.727179,湖北省,武汉市,黄陂区
恒达盘龙湾荷园,商务住宅,住宅区,114.265915,30.72503,湖北省,武汉市,黄陂区
万润橄榄城,商务住宅,住宅区,114.243659,30.723712,湖北省,武汉市,黄陂区
金天国际,商务住宅,住宅区,114.243303,30.724406,湖北省,武汉市,黄陂区
向阳小区,商务住宅,住宅区,114.44155,30.659094000000003,湖北省,武汉市,青山区
武汉石化第三生活小区,商务住宅,住宅区,114.439781,30.658238,湖北省,武汉市,青山区
户发巷,商务住宅,住宅区,114.463017,30.658173,湖北省,武汉市,洪山区
莱茵御景,商务住宅,住宅区,114.5683,30.644244,湖北省,武汉市,新洲区
隐秀山谷,商务住宅,住宅区,114.572584,30.642622,湖北省,武汉市,新洲区
牮楼村社区,商务住宅,住宅区,114.5743,30.642733,湖北省,武汉市,新洲区
书香名园,商务住宅,住宅区,114.581802,30.665385,湖北省,武汉市,新洲区
锦阳花园,商务住宅,住宅区,114.575964,30.66805,湖北省,武汉市,新洲区
机场路花园,商务住宅,住宅区,114.576491,30.666264,湖北省,武汉市,新洲区
君悦花园,商务住宅,住宅区,114.57572,30.66682,湖北省,武汉市,新洲区
明强花园,商务住宅,住宅区,114.581381,30.664404,湖北省,武汉市,新洲区
宁怡小区E栋,商务住宅,住宅区,114.575315,30.665263,湖北省,武汉市,新洲区
戎北花园,商务住宅,住宅区,114.580281,30.664932,湖北省,武汉市,新洲区
华发峰尚,商务住宅,住宅区,114.583687,30.668295,湖北省,武汉市,新洲区
大学生主题小区,商务住宅,住宅区,114.586806,30.666646,湖北省,武汉市,新洲区
万家湾新区,商务住宅,住宅区,114.579462,30.666938,湖北省,武汉市,新洲区
航空花园,商务住宅,住宅区,114.57972,30.664826,湖北省,武汉市,新洲区
金能社区,商务住宅,住宅区,114.576793,30.667897,湖北省,武汉市,新洲区
桂园花园,商务住宅,住宅区,114.578611,30.66647,湖北省,武汉市,新洲区
卡地亚公馆,商务住宅,住宅区,114.582417,30.667833,湖北省,武汉市,新洲区
宁怡社区,商务住宅,住宅区,114.575766,30.665332000000003,湖北省,武汉市,新洲区
半山逸品,商务住宅,住宅区,114.579626,30.678624000000003,湖北省,武汉市,新洲区
天琴湾五期,商务住宅,住宅区,114.574669,30.6788,湖北省,武汉市,新洲区
尚硕装饰,商务住宅,住宅区,114.581295,30.684282,湖北省,武汉市,新洲区
德雅国际城港龙湾,商务住宅,住宅区,114.577656,30.679272,湖北省,武汉市,新洲区
CITY ON曦地港,商务住宅,住宅区,114.58075,30.682299,湖北省,武汉市,新洲区
湖景雅苑,商务住宅,住宅区,114.577072,30.680096,湖北省,武汉市,新洲区
省道德雅国际城,商务住宅,住宅区,114.57768,30.679257,湖北省,武汉市,新洲区
金色港湾,商务住宅,住宅区,114.579242,30.680841,湖北省,武汉市,新洲区
天琴湾,商务住宅,住宅区,114.573351,30.678594,湖北省,武汉市,新洲区
阳光新港中央花园城,商务住宅,住宅区,114.571389,30.691603,湖北省,武汉市,新洲区
新大陆广场,商务住宅,住宅区,114.571636,30.694969,湖北省,武汉市,新洲区
阳光·新港,商务住宅,住宅区,114.569821,30.689123,湖北省,武汉市,新洲区
常阳·东骏城,商务住宅,住宅区,114.574692,30.688025,湖北省,武汉市,新洲区
红岭新村,商务住宅,住宅区,114.574956,30.693742,湖北省,武汉市,新洲区
红岭小区西区,商务住宅,住宅区,114.57381,30.693991,湖北省,武汉市,新洲区
红岭小区,商务住宅,住宅区,114.573865,30.694464,湖北省,武汉市,新洲区
红岭小区,商务住宅,住宅区,114.573819,30.694068,湖北省,武汉市,新洲区
阳光新港中央花园城C区,商务住宅,住宅区,114.570169,30.689567,湖北省,武汉市,新洲区
阳光新港中央花园城E区,商务住宅,住宅区,114.570928,30.688139,湖北省,武汉市,新洲区
保利·圆梦城九区,商务住宅,住宅区,114.580245,30.697779,湖北省,武汉市,新洲区
保利·圆梦城六区,商务住宅,住宅区,114.578492,30.695594,湖北省,武汉市,新洲区
佳阳大都府,商务住宅,住宅区,114.576218,30.697408,湖北省,武汉市,新洲区
保利·圆梦城十区,商务住宅,住宅区,114.581375,30.698337,湖北省,武汉市,新洲区
枫桦雅园,商务住宅,住宅区,114.578662,30.700404,湖北省,武汉市,新洲区
瀚华天地,商务住宅,住宅区,114.571243,30.695107,湖北省,武汉市,新洲区
欣隆·湖滨半岛,商务住宅,住宅区,114.570654,30.698586,湖北省,武汉市,新洲区
泊湖澜岸,商务住宅,住宅区,114.571497,30.695731,湖北省,武汉市,新洲区
佳阳·国际,商务住宅,住宅区,114.570265,30.70441,湖北省,武汉市,新洲区
新澳·城市印象,商务住宅,住宅区,114.568131,30.704509,湖北省,武汉市,新洲区
长江·御龙新城,商务住宅,住宅区,114.572513,30.702911,湖北省,武汉市,新洲区
花园社区,商务住宅,住宅区,114.582677,30.709076,湖北省,武汉市,新洲区
风荷园,商务住宅,住宅区,114.579045,30.704826,湖北省,武汉市,新洲区
文腾·藏珑苑,商务住宅,住宅区,114.578467,30.703443,湖北省,武汉市,新洲区
武汉SOHO,商务住宅,住宅区,114.571441,30.727035,湖北省,武汉市,新洲区
新业小区,商务住宅,住宅区,114.578142,30.728011,湖北省,武汉市,新洲区
中建·壹品新城,商务住宅,住宅区,114.583409,30.727063,湖北省,武汉市,新洲区
中阳集团余集新村还建楼,商务住宅,住宅区,114.579759,30.727127,湖北省,武汉市,新洲区
电建南国·洺悦华府,商务住宅,住宅区,114.580327,30.730585,湖北省,武汉市,新洲区
华发未来城,商务住宅,住宅区,114.582522,30.728502,湖北省,武汉市,新洲区
JD亚洲一号,商务住宅,住宅区,114.578593,30.735348,湖北省,武汉市,新洲区
江林国际,商务住宅,住宅区,114.573593,30.730654,湖北省,武汉市,新洲区
新力金沙湾,商务住宅,住宅区,114.553556,30.705134,湖北省,武汉市,新洲区
长河港湾,商务住宅,住宅区,114.530055,30.713425,湖北省,武汉市,新洲区
山河新村,商务住宅,住宅区,114.537324,30.717758,湖北省,武汉市,新洲区
翠竹园,商务住宅,住宅区,114.524528,30.709659,湖北省,武汉市,新洲区
港逸豪园·南园1期,商务住宅,住宅区,114.520347,30.709086,湖北省,武汉市,新洲区
成缺楼,商务住宅,住宅区,114.529266,30.713975,湖北省,武汉市,新洲区
商桥湾,商务住宅,住宅区,114.674075,30.793441,湖北省,武汉市,新洲区
施正桥湾,商务住宅,住宅区,114.678122,30.800534000000003,湖北省,武汉市,新洲区
邱桥湾,商务住宅,住宅区,114.666116,30.797824,湖北省,武汉市,新洲区
洲上村余新太塆,商务住宅,住宅区,114.67163,30.797331,湖北省,武汉市,新洲区
明峰嘉园,商务住宅,住宅区,114.606746,30.831044,湖北省,武汉市,新洲区
武滨路小区,商务住宅,住宅区,114.602653,30.834167,湖北省,武汉市,新洲区
刘先村刘先大塆,商务住宅,住宅区,114.674227,30.87704,湖北省,武汉市,新洲区
泰和楼,商务住宅,住宅区,114.674809,30.872749,湖北省,武汉市,新洲区
刘先村西张塆,商务住宅,住宅区,114.679406,30.879687,湖北省,武汉市,新洲区
北辰蔚蓝城市,商务住宅,住宅区,114.267422,30.757905,湖北省,武汉市,黄陂区
天纵御景湾,商务住宅,住宅区,114.265305,30.757255,湖北省,武汉市,黄陂区
天纵云湖湾,商务住宅,住宅区,114.270305,30.755175,湖北省,武汉市,黄陂区
中南拂晓城,商务住宅,住宅区,114.271542,30.760291,湖北省,武汉市,黄陂区
金辉优步湖畔,商务住宅,住宅区,114.283143,30.757784,湖北省,武汉市,黄陂区
南德缦和美域,商务住宅,住宅区,114.275824,30.754727,湖北省,武汉市,黄陂区
优步湖畔,商务住宅,住宅区,114.283139,30.757777,湖北省,武汉市,黄陂区
融侨·方圆,商务住宅,住宅区,114.28073,30.758075,湖北省,武汉市,黄陂区
中建壹品澜郡,商务住宅,住宅区,114.280473,30.756101,湖北省,武汉市,黄陂区
联发云璟,商务住宅,住宅区,114.274218,30.753689,湖北省,武汉市,黄陂区
诺德逸园,商务住宅,住宅区,114.282665,30.754713,湖北省,武汉市,黄陂区
交投合盛嘉园,商务住宅,住宅区,114.282059,30.761552,湖北省,武汉市,黄陂区
北辰蔚蓝城市.樾东方,商务住宅,住宅区,114.267692,30.765284,湖北省,武汉市,黄陂区
宏棉雅园,商务住宅,住宅区,114.302522,30.799169,湖北省,武汉市,黄陂区
天河街河仙园,商务住宅,住宅区,114.215559,30.814394,湖北省,武汉市,黄陂区
三里桥银湖苑社区,商务住宅,住宅区,114.41847,30.784051,湖北省,武汉市,黄陂区
银湖小区,商务住宅,住宅区,114.419445,30.781767,湖北省,武汉市,黄陂区
耀生社区,商务住宅,住宅区,114.395716,30.86957,湖北省,武汉市,黄陂区
水木兰亭,商务住宅,住宅区,114.392876,30.869766,湖北省,武汉市,黄陂区
天熙楚世家,商务住宅,住宅区,114.392835,30.870713,湖北省,武汉市,黄陂区
友福花园,商务住宅,住宅区,114.392973,30.869364,湖北省,武汉市,黄陂区
武汉甘露山文创城,商务住宅,住宅区,114.407191,30.884269,湖北省,武汉市,黄陂区
武汉孔雀城壹滨江,商务住宅,住宅区,114.372989,30.85959,湖北省,武汉市,黄陂区
宝塔社区,商务住宅,住宅区,114.364707,30.858873000000003,湖北省,武汉市,黄陂区
金龙·四季阳光,商务住宅,住宅区,114.360789,30.872042,湖北省,武汉市,黄陂区
黄陂春天,商务住宅,住宅区,114.361185,30.870734,湖北省,武汉市,黄陂区
中梁首府,商务住宅,住宅区,114.359837,30.869288,湖北省,武汉市,黄陂区
板桥逸景,商务住宅,住宅区,114.357462,30.869925,湖北省,武汉市,黄陂区
新村八里,商务住宅,住宅区,114.359701,30.879492000000003,湖北省,武汉市,黄陂区
江北·第一府西园,商务住宅,住宅区,114.361761,30.878869,湖北省,武汉市,黄陂区
新村彭家田,商务住宅,住宅区,114.360458,30.879258,湖北省,武汉市,黄陂区
周荣公寓,商务住宅,住宅区,114.233123,30.87198,湖北省,武汉市,黄陂区
朝城新都,商务住宅,住宅区,114.234626,30.876294,湖北省,武汉市,黄陂区
华氏印染社区,商务住宅,住宅区,114.229652,30.876539,湖北省,武汉市,黄陂区
照祁湾,商务住宅,住宅区,114.240251,30.877293,湖北省,武汉市,黄陂区
祁家湾社区,商务住宅,住宅区,114.233591,30.88087,湖北省,武汉市,黄陂区
朝前小区,商务住宅,住宅区,114.232082,30.880507,湖北省,武汉市,黄陂区
车站社区,商务住宅,住宅区,114.238425,30.878797,湖北省,武汉市,黄陂区
南德·世家,商务住宅,住宅区,114.233562,30.878245,湖北省,武汉市,黄陂区
广场亮波社区,商务住宅,住宅区,114.232937,30.880844,湖北省,武汉市,黄陂区
湖东塆,商务住宅,住宅区,114.701027,30.744492,湖北省,武汉市,新洲区
汪集镇草架塆,商务住宅,住宅区,114.695392,30.773262,湖北省,武汉市,新洲区
汪集镇陶皮匠塆,商务住宅,住宅区,114.68864,30.773563,湖北省,武汉市,新洲区
中交·香颂,商务住宅,住宅区,114.706958,30.776525,湖北省,武汉市,新洲区
汪集街幸福社区,商务住宅,住宅区,114.705493,30.780883,湖北省,武汉市,新洲区
汪兴花园,商务住宅,住宅区,114.709304,30.779138,湖北省,武汉市,新洲区
荣生小区,商务住宅,住宅区,114.706121,30.777638,湖北省,武汉市,新洲区
祥和世家,商务住宅,住宅区,114.802921,30.826248000000003,湖北省,武汉市,新洲区
新洲福临门社区,商务住宅,住宅区,114.815791,30.825348,湖北省,武汉市,新洲区
常阳新城,商务住宅,住宅区,114.813794,30.826881,湖北省,武汉市,新洲区
新城华府,商务住宅,住宅区,114.809395,30.825387,湖北省,武汉市,新洲区
武汉鸿达大药房连锁有限责任公司东城湾药店,商务住宅,住宅区,114.824404,30.82744,湖北省,武汉市,新洲区
东城尚品,商务住宅,住宅区,114.830743,30.824823,湖北省,武汉市,新洲区
上坤绿城,商务住宅,住宅区,114.81839,30.83434,湖北省,武汉市,新洲区
尚品福城,商务住宅,住宅区,114.81806,30.835707,湖北省,武汉市,新洲区
刘铺湾,商务住宅,住宅区,114.773196,30.82421,湖北省,武汉市,新洲区
朱研子塆,商务住宅,住宅区,114.772479,30.823874,湖北省,武汉市,新洲区
三店街办事处中心戒赌小区,商务住宅,住宅区,114.792849,30.926457,湖北省,武汉市,新洲区
五里还建社区,商务住宅,住宅区,114.358936,30.888786000000003,湖北省,武汉市,黄陂区
合融·清华源,商务住宅,住宅区,114.360847,30.887847,湖北省,武汉市,黄陂区
玫·白兰丽舍东区,商务住宅,住宅区,114.363956,30.897238,湖北省,武汉市,黄陂区
乐府,商务住宅,住宅区,114.359395,30.901256,湖北省,武汉市,黄陂区
玫·白兰丽舍,商务住宅,住宅区,114.362212,30.898699,湖北省,武汉市,黄陂区
南德国际城,商务住宅,住宅区,114.377813,30.886628,湖北省,武汉市,黄陂区
锦绣天地,商务住宅,住宅区,114.382997,30.888254,湖北省,武汉市,黄陂区
木兰俊才公寓,商务住宅,住宅区,114.381536,30.885725,湖北省,武汉市,黄陂区
锦绣天地小区,商务住宅,住宅区,114.382199,30.887854,湖北省,武汉市,黄陂区
定远廉租公租房,商务住宅,住宅区,114.381512,30.885995,湖北省,武汉市,黄陂区
平安雅居,商务住宅,住宅区,114.537732,30.923114,湖北省,武汉市,黄陂区
锦绣花园,商务住宅,住宅区,114.536536,30.921963,湖北省,武汉市,黄陂区
民群社区,商务住宅,住宅区,114.539207,30.924904,湖北省,武汉市,黄陂区
蔡榨公租房,商务住宅,住宅区,114.536476,30.925933,湖北省,武汉市,黄陂区
泡桐新村,商务住宅,住宅区,114.207239,31.070042,湖北省,武汉市,黄陂区
新村居,商务住宅,住宅区,114.207518,31.069043,湖北省,武汉市,黄陂区
泡桐电影院小区,商务住宅,住宅区,114.209068,31.071182,湖北省,武汉市,黄陂区
武汉城建-融创金麟壹号,商务住宅,住宅区,114.145009,30.326443,湖北省,武汉市,江夏区
金岭小区,商务住宅,住宅区,114.147477,30.328147,湖北省,武汉市,江夏区
廖家堡小区,商务住宅,住宅区,114.089438,30.333089,湖北省,武汉市,汉南区
锦绣鑫园,商务住宅,住宅区,114.073364,30.308074,湖北省,武汉市,汉南区
博学佳园,商务住宅,住宅区,114.072828,30.309147000000003,湖北省,武汉市,汉南区
汉南一中教师社区,商务住宅,住宅区,114.074125,30.311274,湖北省,武汉市,汉南区
薇湖水岸,商务住宅,住宅区,114.073686,30.305955,湖北省,武汉市,汉南区
博学·阳光城,商务住宅,住宅区,114.073506,30.310217,湖北省,武汉市,汉南区
银河新城,商务住宅,住宅区,114.062631,30.312724,湖北省,武汉市,汉南区
君悦府,商务住宅,住宅区,114.063084,30.320538000000003,湖北省,武汉市,汉南区
紫阳楚世家,商务住宅,住宅区,114.065858,30.317642,湖北省,武汉市,汉南区
汉南中央城,商务住宅,住宅区,114.068998,30.317523,湖北省,武汉市,汉南区
坛山花园,商务住宅,住宅区,114.063218,30.316409,湖北省,武汉市,汉南区
康居花园,商务住宅,住宅区,114.064681,30.316275,湖北省,武汉市,汉南区
天仪豪庭,商务住宅,住宅区,114.072709,30.31694,湖北省,武汉市,汉南区
汉南天地,商务住宅,住宅区,114.068521,30.314181,湖北省,武汉市,汉南区
新城庭瑞君悦观澜,商务住宅,住宅区,114.062227,30.319693,湖北省,武汉市,汉南区
蓝光雍锦天府,商务住宅,住宅区,114.070452,30.316922,湖北省,武汉市,汉南区
星悦湾,商务住宅,住宅区,114.071088,30.317892,湖北省,武汉市,汉南区
碧桂园凤凰湾,商务住宅,住宅区,114.057978,30.320655,湖北省,武汉市,汉南区
常乐花园,商务住宅,住宅区,113.846524,30.439711,湖北省,武汉市,蔡甸区
永安新城,商务住宅,住宅区,113.943071,30.455484,湖北省,武汉市,蔡甸区
九真明珠,商务住宅,住宅区,113.942624,30.456831,湖北省,武汉市,蔡甸区
四华园,商务住宅,住宅区,113.941649,30.457091,湖北省,武汉市,蔡甸区
永安育才花园,商务住宅,住宅区,113.941409,30.456102,湖北省,武汉市,蔡甸区
锦绣豪园,商务住宅,住宅区,114.138937,30.460889,湖北省,武汉市,蔡甸区
洪山花园,商务住宅,住宅区,114.153988,30.46615,湖北省,武汉市,蔡甸区
枫桦苇岸,商务住宅,住宅区,114.179888,30.45839,湖北省,武汉市,蔡甸区
万家湖社区D区,商务住宅,住宅区,114.175682,30.457835000000003,湖北省,武汉市,蔡甸区
万家湖社区C区,商务住宅,住宅区,114.17404,30.460458,湖北省,武汉市,蔡甸区
万家湖小区,商务住宅,住宅区,114.181292,30.464808,湖北省,武汉市,蔡甸区
君融天湖,商务住宅,住宅区,114.1725,30.46435,湖北省,武汉市,蔡甸区
万家湖社区B区,商务住宅,住宅区,114.174386,30.465149,湖北省,武汉市,蔡甸区
君融天湖,商务住宅,住宅区,114.172358,30.463565,湖北省,武汉市,蔡甸区
汤湖观筑,商务住宅,住宅区,114.172585,30.467182,湖北省,武汉市,蔡甸区
周公7区,商务住宅,住宅区,114.19473,30.471577,湖北省,武汉市,蔡甸区
长寿居,商务住宅,住宅区,114.189774,30.478306,湖北省,武汉市,蔡甸区
金凯公寓,商务住宅,住宅区,114.163058,30.479052000000003,湖北省,武汉市,蔡甸区
金凯公寓2期,商务住宅,住宅区,114.163427,30.478881,湖北省,武汉市,蔡甸区
全力北企业小区,商务住宅,住宅区,114.074973,30.461907,湖北省,武汉市,蔡甸区
观湖园,商务住宅,住宅区,114.089178,30.462993,湖北省,武汉市,蔡甸区
观湖花园,商务住宅,住宅区,114.090853,30.465077,湖北省,武汉市,蔡甸区
东风凤凰城,商务住宅,住宅区,114.093399,30.466438,湖北省,武汉市,蔡甸区
东风凤凰城2期,商务住宅,住宅区,114.091963,30.468159,湖北省,武汉市,蔡甸区
南益·名士公馆,商务住宅,住宅区,114.097995,30.468061,湖北省,武汉市,蔡甸区
越秀·逸境,商务住宅,住宅区,114.097011,30.468784,湖北省,武汉市,蔡甸区
鑫亢龙园,商务住宅,住宅区,114.090459,30.464524,湖北省,武汉市,蔡甸区
Gree馨雅园,商务住宅,住宅区,114.075558,30.466787,湖北省,武汉市,蔡甸区
冠捷生活园区,商务住宅,住宅区,114.128594,30.462448,湖北省,武汉市,蔡甸区
永久小区,商务住宅,住宅区,114.110022,30.465553,湖北省,武汉市,蔡甸区
印湖云著,商务住宅,住宅区,114.115584,30.468313,湖北省,武汉市,蔡甸区
枫树湾老年宜居小区,商务住宅,住宅区,114.112855,30.467976,湖北省,武汉市,蔡甸区
城墅,商务住宅,住宅区,114.11587,30.468146,湖北省,武汉市,蔡甸区
聚福园,商务住宅,住宅区,114.112939,30.467686,湖北省,武汉市,蔡甸区
碧桂园麓湖郡,商务住宅,住宅区,114.110011,30.469975,湖北省,武汉市,蔡甸区
汉阳满庭春MOMA,商务住宅,住宅区,114.113758,30.467744,湖北省,武汉市,蔡甸区
中冶枫树湾,商务住宅,住宅区,114.111963,30.469967,湖北省,武汉市,蔡甸区
枫树湾小区,商务住宅,住宅区,114.111404,30.469028,湖北省,武汉市,蔡甸区
碧桂园·麓湖郡,商务住宅,住宅区,114.108409,30.472473,湖北省,武汉市,蔡甸区
水岸·毕家索,商务住宅,住宅区,114.134408,30.48019,湖北省,武汉市,蔡甸区
赛尔公寓,商务住宅,住宅区,114.053162,30.43162,湖北省,武汉市,蔡甸区
达观公寓,商务住宅,住宅区,114.058094,30.431919,湖北省,武汉市,蔡甸区
光明府,商务住宅,住宅区,114.045143,30.433322,湖北省,武汉市,蔡甸区
锦天公寓,商务住宅,住宅区,114.054118,30.431356,湖北省,武汉市,蔡甸区
青年小区,商务住宅,住宅区,114.061037,30.449384,湖北省,武汉市,蔡甸区
富桥公寓,商务住宅,住宅区,114.06078,30.448509,湖北省,武汉市,蔡甸区
奓山新园,商务住宅,住宅区,114.017819,30.444186,湖北省,武汉市,蔡甸区
奥山首府,商务住宅,住宅区,114.017854,30.439184,湖北省,武汉市,蔡甸区
康桥朗城,商务住宅,住宅区,114.038863,30.438525,湖北省,武汉市,蔡甸区
汉津阳光城,商务住宅,住宅区,114.036435,30.445373,湖北省,武汉市,蔡甸区
大东小区,商务住宅,住宅区,114.038714,30.453476,湖北省,武汉市,蔡甸区
国创·青云,商务住宅,住宅区,114.105191,30.511311,湖北省,武汉市,蔡甸区
世纪万通·漫谷,商务住宅,住宅区,114.106852,30.51182,湖北省,武汉市,蔡甸区
东方夏威夷国际花园纳凯群岛,商务住宅,住宅区,114.133537,30.517168,湖北省,武汉市,蔡甸区
东方夏威夷国际花园御海云滩,商务住宅,住宅区,114.133439,30.520762,湖北省,武汉市,蔡甸区
东方夏威夷国际花园海洋之心,商务住宅,住宅区,114.129647,30.51754,湖北省,武汉市,蔡甸区
西海岸,商务住宅,住宅区,114.120213,30.514883,湖北省,武汉市,蔡甸区
东方夏威夷国际花园檀香椰风,商务住宅,住宅区,114.133356,30.518887,湖北省,武汉市,蔡甸区
东方夏威夷国际花园碧海云滩,商务住宅,住宅区,114.131686,30.519364,湖北省,武汉市,蔡甸区
东风阳光城,商务住宅,住宅区,114.148218,30.498513,湖北省,武汉市,蔡甸区
中国城乡·樾园,商务住宅,住宅区,114.143077,30.498411,湖北省,武汉市,蔡甸区
中国城乡·香樾洲营销服务中心,商务住宅,住宅区,114.143821,30.498627000000003,湖北省,武汉市,蔡甸区
东风·阳光城四期红枫园,商务住宅,住宅区,114.149049,30.497452,湖北省,武汉市,蔡甸区
东风·阳光城湖景园,商务住宅,住宅区,114.146661,30.500457,湖北省,武汉市,蔡甸区
宁康园,商务住宅,住宅区,114.170437,30.495171,湖北省,武汉市,蔡甸区
安康园,商务住宅,住宅区,114.167039,30.496309,湖北省,武汉市,蔡甸区
神龙国际青年公寓,商务住宅,住宅区,114.174675,30.494588,湖北省,武汉市,蔡甸区
神龙金湖单身公寓,商务住宅,住宅区,114.167066,30.494187,湖北省,武汉市,蔡甸区
壹间,商务住宅,住宅区,114.166424,30.493874,湖北省,武汉市,蔡甸区
万科·翡翠玖玺1期,商务住宅,住宅区,114.18198,30.49889,湖北省,武汉市,蔡甸区
百强·名流雅阁,商务住宅,住宅区,114.148074,30.511188,湖北省,武汉市,蔡甸区
碧湖新村,商务住宅,住宅区,114.149703,30.504435,湖北省,武汉市,蔡甸区
千晴岸,商务住宅,住宅区,114.14641,30.510109,湖北省,武汉市,蔡甸区
湖畔理想,商务住宅,住宅区,114.146138,30.510186,湖北省,武汉市,蔡甸区
学府丽城,商务住宅,住宅区,114.145981,30.519555,湖北省,武汉市,蔡甸区
东方夏威夷国际花园娜帕海岸,商务住宅,住宅区,114.135289,30.516448,湖北省,武汉市,蔡甸区
东方夏威夷国际花园可爱人居,商务住宅,住宅区,114.136648,30.520295,湖北省,武汉市,蔡甸区
海伦春天4期,商务住宅,住宅区,114.179425,30.536696,湖北省,武汉市,汉阳区
万科汉阳国际,商务住宅,住宅区,114.193754,30.545735,湖北省,武汉市,汉阳区
梧桐园,商务住宅,住宅区,114.087926,30.559342,湖北省,武汉市,蔡甸区
明业不动产,商务住宅,住宅区,114.077786,30.560146,湖北省,武汉市,蔡甸区
宏晨新农牛肉面店,商务住宅,住宅区,114.084866,30.557696,湖北省,武汉市,蔡甸区
武汉·知音城,商务住宅,住宅区,114.079779,30.562028,湖北省,武汉市,蔡甸区
杨湾社区,商务住宅,住宅区,114.087931,30.557414,湖北省,武汉市,蔡甸区
武汉·知音城还建社区2期,商务住宅,住宅区,114.079117,30.560944,湖北省,武汉市,蔡甸区
军工小区,商务住宅,住宅区,114.099575,30.553956,湖北省,武汉市,蔡甸区
中建中法之星,商务住宅,住宅区,114.090447,30.555911,湖北省,武汉市,蔡甸区
天元四季花城,商务住宅,住宅区,114.096346,30.557173,湖北省,武汉市,蔡甸区
武汉·知音城还建社区3期,商务住宅,住宅区,114.079366,30.563571,湖北省,武汉市,蔡甸区
新农知音城,商务住宅,住宅区,114.078925,30.564585,湖北省,武汉市,蔡甸区
幺铺还建社区,商务住宅,住宅区,114.074411,30.563774,湖北省,武汉市,蔡甸区
幺铺还建楼2期,商务住宅,住宅区,114.07706,30.564089000000003,湖北省,武汉市,蔡甸区
快活岭社区,商务住宅,住宅区,114.144461,30.562601,湖北省,武汉市,汉阳区
米粮新花园,商务住宅,住宅区,114.171816,30.55961,湖北省,武汉市,汉阳区
磨山南园,商务住宅,住宅区,114.194226,30.559596,湖北省,武汉市,汉阳区
仙山新城,商务住宅,住宅区,114.179606,30.578481,湖北省,武汉市,汉阳区
保和·汉水湾,商务住宅,住宅区,114.177261,30.576852,湖北省,武汉市,汉阳区
军院小区,商务住宅,住宅区,114.195141,30.586695,湖北省,武汉市,硚口区
佳兆业滨江壹号,商务住宅,住宅区,114.185392,30.579597,湖北省,武汉市,汉阳区
江山樾,商务住宅,住宅区,114.188713,30.585902,湖北省,武汉市,硚口区
汉江湾,商务住宅,住宅区,114.186625,30.58612,湖北省,武汉市,硚口区
黄金口岸,商务住宅,住宅区,114.171396,30.583695,湖北省,武汉市,汉阳区
汉阳惠民园,商务住宅,住宅区,114.170526,30.585494,湖北省,武汉市,汉阳区
黄金口岸2期,商务住宅,住宅区,114.170602,30.583777,湖北省,武汉市,汉阳区
创业公寓,商务住宅,住宅区,114.151253,30.578036,湖北省,武汉市,汉阳区
新馨阁,商务住宅,住宅区,114.153234,30.577597,湖北省,武汉市,汉阳区
舵港公寓,商务住宅,住宅区,114.147816,30.594669,湖北省,武汉市,东西湖区
文一云水湾,商务住宅,住宅区,114.140096,30.595828,湖北省,武汉市,东西湖区
白鹤嘴小区,商务住宅,住宅区,114.134805,30.596778,湖北省,武汉市,东西湖区
汉江康居二期,商务住宅,住宅区,114.135065,30.595589,湖北省,武汉市,东西湖区
黄金花园,商务住宅,住宅区,114.169986,30.587385,湖北省,武汉市,汉阳区
黄金口小区,商务住宅,住宅区,114.165102,30.59024,湖北省,武汉市,汉阳区
华金阁,商务住宅,住宅区,114.167163,30.590671,湖北省,武汉市,汉阳区
银舵新都,商务住宅,住宅区,114.170238,30.607902,湖北省,武汉市,硚口区
汉水岸,商务住宅,住宅区,114.178679,30.60545,湖北省,武汉市,硚口区
汉江雅园,商务住宅,住宅区,114.179325,30.605273,湖北省,武汉市,硚口区
工农路小区,商务住宅,住宅区,114.178301,30.606459,湖北省,武汉市,硚口区
家安社区,商务住宅,住宅区,114.169609,30.607778,湖北省,武汉市,硚口区
易家街工农小区,商务住宅,住宅区,114.178328,30.606642,湖北省,武汉市,硚口区
2008城市花园,商务住宅,住宅区,114.191158,30.612094,湖北省,武汉市,硚口区
蓝光林肯生态公园,商务住宅,住宅区,114.191955,30.619566,湖北省,武汉市,硚口区
易代储武汉5号院,商务住宅,住宅区,114.08093,30.603113,湖北省,武汉市,东西湖区
临空港青年城,商务住宅,住宅区,114.093521,30.608218,湖北省,武汉市,东西湖区
逸情雅阁,商务住宅,住宅区,114.028795,30.568944,湖北省,武汉市,蔡甸区
中国铁建·知语城,商务住宅,住宅区,114.024434,30.56821,湖北省,武汉市,蔡甸区
中海尚城,商务住宅,住宅区,114.026767,30.562988,湖北省,武汉市,蔡甸区
中核凤凰城,商务住宅,住宅区,114.058774,30.561559,湖北省,武汉市,蔡甸区
金地中核凤凰城,商务住宅,住宅区,114.058269,30.560693,湖北省,武汉市,蔡甸区
中核锦城,商务住宅,住宅区,114.055618,30.561478,湖北省,武汉市,蔡甸区
金地中核格林格林,商务住宅,住宅区,114.061279,30.561878,湖北省,武汉市,蔡甸区
轻素&栖花里化妆品店,商务住宅,住宅区,114.055475,30.567016,湖北省,武汉市,蔡甸区
知音首府,商务住宅,住宅区,114.054841,30.565284,湖北省,武汉市,蔡甸区
红光精品花园,商务住宅,住宅区,114.054515,30.565429,湖北省,武汉市,蔡甸区
中法新城,商务住宅,住宅区,114.055827,30.566021,湖北省,武汉市,蔡甸区
红光小区,商务住宅,住宅区,114.055251,30.569452,湖北省,武汉市,蔡甸区
红光小区,商务住宅,住宅区,114.054642,30.567634,湖北省,武汉市,蔡甸区
五星小区,商务住宅,住宅区,114.063522,30.581892,湖北省,武汉市,蔡甸区
温馨花园,商务住宅,住宅区,114.044201,30.580419,湖北省,武汉市,蔡甸区
望江花园,商务住宅,住宅区,114.025599,30.588271,湖北省,武汉市,蔡甸区
杰翔·运铎嘉园1期,商务住宅,住宅区,114.021533,30.588331,湖北省,武汉市,蔡甸区
古井路108号社区,商务住宅,住宅区,114.025372,30.587462,湖北省,武汉市,蔡甸区
汉阳大街7-13号社区,商务住宅,住宅区,114.021051,30.587123,湖北省,武汉市,蔡甸区
文正街9号社区,商务住宅,住宅区,114.022929,30.589538,湖北省,武汉市,蔡甸区
蔡张二路46号社区,商务住宅,住宅区,114.024902,30.590998,湖北省,武汉市,蔡甸区
齐锦花园,商务住宅,住宅区,114.02155,30.587241,湖北省,武汉市,蔡甸区
生态公园新居,商务住宅,住宅区,114.017948,30.587626,湖北省,武汉市,蔡甸区
江滩花园,商务住宅,住宅区,114.036621,30.587509,湖北省,武汉市,蔡甸区
文昌街桥兰花园,商务住宅,住宅区,114.034919,30.58719,湖北省,武汉市,蔡甸区
河街小区,商务住宅,住宅区,114.033067,30.589476,湖北省,武汉市,蔡甸区
纺新苑社区,商务住宅,住宅区,113.951301,30.695095,湖北省,武汉市,东西湖区
五龙御园,商务住宅,住宅区,113.931533,30.743846,湖北省,武汉市,东西湖区
乐佳小区,商务住宅,住宅区,113.997253,30.638821,湖北省,武汉市,东西湖区
乐佳小区A区,商务住宅,住宅区,113.998631,30.639066,湖北省,武汉市,东西湖区
新华园,商务住宅,住宅区,113.998312,30.643312,湖北省,武汉市,东西湖区
和谐花园,商务住宅,住宅区,114.055571,30.630024,湖北省,武汉市,东西湖区
同心花苑还建社区,商务住宅,住宅区,114.023244,30.642545,湖北省,武汉市,东西湖区
走马岭荷塘社区,商务住宅,住宅区,114.04032,30.660705,湖北省,武汉市,东西湖区
兴达社区,商务住宅,住宅区,114.075466,30.62496,湖北省,武汉市,东西湖区
幸福园还建小区1期,商务住宅,住宅区,114.075094,30.627314,湖北省,武汉市,东西湖区
长青街幸福园,商务住宅,住宅区,114.075153,30.627075,湖北省,武汉市,东西湖区
兴达还建小区3期,商务住宅,住宅区,114.075373,30.625374,湖北省,武汉市,东西湖区
长青街幸福还建小区3期,商务住宅,住宅区,114.075513,30.628266,湖北省,武汉市,东西湖区
长青街幸福还建小区二期,商务住宅,住宅区,114.074539,30.631707,湖北省,武汉市,东西湖区
山北自治社区,商务住宅,住宅区,114.133545,30.629511,湖北省,武汉市,东西湖区
碧桂园·公园里,商务住宅,住宅区,114.122096,30.631665,湖北省,武汉市,东西湖区
恒大嘉园三期,商务住宅,住宅区,114.117205,30.630869,湖北省,武汉市,东西湖区
恒大帝景,商务住宅,住宅区,114.117477,30.635206,湖北省,武汉市,东西湖区
航天嘉园二期DE组团,商务住宅,住宅区,114.114969,30.628994,湖北省,武汉市,东西湖区
华景川·秀丽春江,商务住宅,住宅区,114.113724,30.633955,湖北省,武汉市,东西湖区
江悦兰园,商务住宅,住宅区,114.109022,30.633894,湖北省,武汉市,东西湖区
宇济钦江园,商务住宅,住宅区,114.114627,30.631826,湖北省,武汉市,东西湖区
北辰金地·漾时代,商务住宅,住宅区,114.105197,30.635702,湖北省,武汉市,东西湖区
中国铁建·江语城,商务住宅,住宅区,114.107857,30.635518,湖北省,武汉市,东西湖区
莲花湖小区2期,商务住宅,住宅区,114.129296,30.644466,湖北省,武汉市,东西湖区
九坤新城壹号,商务住宅,住宅区,114.126826,30.642769,湖北省,武汉市,东西湖区
莲花湖小区16栋,商务住宅,住宅区,114.128266,30.643541,湖北省,武汉市,东西湖区
石花园,商务住宅,住宅区,114.130114,30.644003,湖北省,武汉市,东西湖区
华发·四季,商务住宅,住宅区,114.119981,30.644532,湖北省,武汉市,东西湖区
东原·阅境,商务住宅,住宅区,114.122188,30.641589,湖北省,武汉市,东西湖区
武地华发·时光,商务住宅,住宅区,114.121491,30.644753,湖北省,武汉市,东西湖区
中南·熙悦,商务住宅,住宅区,114.121822,30.63956,湖北省,武汉市,东西湖区
九坤新城一号.御府,商务住宅,住宅区,114.125997,30.644867,湖北省,武汉市,东西湖区
莲花湖社区,商务住宅,住宅区,114.129755,30.642918,湖北省,武汉市,东西湖区
保利悦公馆,商务住宅,住宅区,114.12625,30.651416,湖北省,武汉市,东西湖区
武汉当代境MOMA,商务住宅,住宅区,114.12536,30.651293000000003,湖北省,武汉市,东西湖区
保利明玥晨光,商务住宅,住宅区,114.120096,30.650497,湖北省,武汉市,东西湖区
佳兆业悦府,商务住宅,住宅区,114.117123,30.653606,湖北省,武汉市,东西湖区
华生·汉口城市广场3期,商务住宅,住宅区,114.174897,30.621775,湖北省,武汉市,硚口区
万科华生·公园大道,商务住宅,住宅区,114.189007,30.622499,湖北省,武汉市,硚口区
鑫桥新村,商务住宅,住宅区,114.191408,30.627551,湖北省,武汉市,东西湖区
华生·汉口城市广场四期一区,商务住宅,住宅区,114.185752,30.627816,湖北省,武汉市,硚口区
鑫桥小区11栋,商务住宅,住宅区,114.192577,30.625965,湖北省,武汉市,东西湖区
鑫桥小区A14号,商务住宅,住宅区,114.195483,30.626245,湖北省,武汉市,东西湖区
金地格林春岸,商务住宅,住宅区,114.193992,30.630911,湖北省,武汉市,东西湖区
金珠港湾,商务住宅,住宅区,114.190018,30.629146,湖北省,武汉市,东西湖区
金湖花园,商务住宅,住宅区,114.185969,30.634434,湖北省,武汉市,东西湖区
金珠港湾北区,商务住宅,住宅区,114.189792,30.631886,湖北省,武汉市,东西湖区
凌云集团青年公寓,商务住宅,住宅区,114.188787,30.631204,湖北省,武汉市,东西湖区
华生·汉口城市广场四期二区,商务住宅,住宅区,114.182796,30.628909,湖北省,武汉市,硚口区
金湖家园B区,商务住宅,住宅区,114.18574,30.636015,湖北省,武汉市,东西湖区
金湖家园E区,商务住宅,住宅区,114.184341,30.632629,湖北省,武汉市,东西湖区
金珠港湾1期,商务住宅,住宅区,114.190428,30.629214,湖北省,武汉市,东西湖区
凌云·金湖家园F区,商务住宅,住宅区,114.187297,30.631959,湖北省,武汉市,东西湖区
华生·汉口城市广场四期,商务住宅,住宅区,114.176703,30.629813,湖北省,武汉市,硚口区
华生城市广场4期,商务住宅,住宅区,114.179905,30.629832,湖北省,武汉市,硚口区
长源·假日港湾,商务住宅,住宅区,114.167687,30.644562,湖北省,武汉市,东西湖区
金珠港湾2期,商务住宅,住宅区,114.192964,30.647608,湖北省,武汉市,东西湖区
观海湾,商务住宅,住宅区,114.190792,30.651591000000003,湖北省,武汉市,东西湖区
听海湾,商务住宅,住宅区,114.192915,30.651401,湖北省,武汉市,东西湖区
祥生柏景湾一期COLA,商务住宅,住宅区,114.168617,30.649113,湖北省,武汉市,东西湖区
祥生·君城,商务住宅,住宅区,114.165576,30.649235,湖北省,武汉市,东西湖区
中建壹品澜荟,商务住宅,住宅区,114.176589,30.671228,湖北省,武汉市,东西湖区
新河苑还建社区,商务住宅,住宅区,114.166986,30.677383000000003,湖北省,武汉市,东西湖区
远洋·世界,商务住宅,住宅区,114.145052,30.672263,湖北省,武汉市,东西湖区
远洋·世界3期,商务住宅,住宅区,114.146356,30.671548,湖北省,武汉市,东西湖区
远洋·世界3期B区,商务住宅,住宅区,114.148613,30.670799,湖北省,武汉市,东西湖区
远洋·世界1期,商务住宅,住宅区,114.143204,30.670777,湖北省,武汉市,东西湖区
远洋·世界2期剑桥郡,商务住宅,住宅区,114.143462,30.67392,湖北省,武汉市,东西湖区
远洋·世界3期A区,商务住宅,住宅区,114.145384,30.671663,湖北省,武汉市,东西湖区
跃进社区,商务住宅,住宅区,114.163774,30.68094,湖北省,武汉市,东西湖区
径河街道办事处永丰园,商务住宅,住宅区,114.162517,30.678308,湖北省,武汉市,东西湖区
十字路小区,商务住宅,住宅区,114.161905,30.67835,湖北省,武汉市,东西湖区
永丰苑社区,商务住宅,住宅区,114.160878,30.680104,湖北省,武汉市,东西湖区
柏香园,商务住宅,住宅区,114.11759,30.723004000000003,湖北省,武汉市,东西湖区
柏泉新园,商务住宅,住宅区,114.120961,30.722847,湖北省,武汉市,东西湖区
幸福小区,商务住宅,住宅区,114.318509,30.341506,湖北省,武汉市,江夏区
中建·龙城东区,商务住宅,住宅区,114.328523,30.342115,湖北省,武汉市,江夏区
滨湖春天,商务住宅,住宅区,114.329849,30.342172,湖北省,武汉市,江夏区
中建龙城西区,商务住宅,住宅区,114.326728,30.342752,湖北省,武汉市,江夏区
中建·龙城,商务住宅,住宅区,114.326187,30.343348,湖北省,武汉市,江夏区
户外职工爱心驿站,商务住宅,住宅区,114.329224,30.344592,湖北省,武汉市,江夏区
东林社区,商务住宅,住宅区,114.336276,30.341056,湖北省,武汉市,江夏区
林特社区,商务住宅,住宅区,114.334713,30.342171,湖北省,武汉市,江夏区
湖北生态工程职业技术学校公租房1期,商务住宅,住宅区,114.338746,30.345627,湖北省,武汉市,江夏区
阳光100凤凰街,商务住宅,住宅区,114.343014,30.352216,湖北省,武汉市,江夏区
齐心今城,商务住宅,住宅区,114.337643,30.353095,湖北省,武汉市,江夏区
高鑫名居,商务住宅,住宅区,114.334869,30.352772,湖北省,武汉市,江夏区
齐心今城二期,商务住宅,住宅区,114.337642,30.354011,湖北省,武汉市,江夏区
关山桥社区,商务住宅,住宅区,114.297095,30.330909,湖北省,武汉市,江夏区
主璧园,商务住宅,住宅区,114.296215,30.331022,湖北省,武汉市,江夏区
宜居花园,商务住宅,住宅区,114.287769,30.33763,湖北省,武汉市,武昌区
御华庭园,商务住宅,住宅区,114.306764,30.342116,湖北省,武汉市,江夏区
博鑫景园,商务住宅,住宅区,114.312644,30.342126,湖北省,武汉市,江夏区
宁安小区,商务住宅,住宅区,114.31649,30.341607,湖北省,武汉市,江夏区
嘉和·世纪华庭,商务住宅,住宅区,114.31156,30.342648,湖北省,武汉市,江夏区
政和花园2期A区,商务住宅,住宅区,114.31226,30.344944,湖北省,武汉市,江夏区
复江道小区,商务住宅,住宅区,114.313662,30.34594,湖北省,武汉市,江夏区
怡欣佳园·宜佳广场,商务住宅,住宅区,114.315619,30.346547,湖北省,武汉市,江夏区
政和花园南区,商务住宅,住宅区,114.313462,30.343507,湖北省,武汉市,江夏区
安居乐园,商务住宅,住宅区,114.30915,30.350331,湖北省,武汉市,江夏区
颐锦逸舍社区,商务住宅,住宅区,114.303782,30.349636,湖北省,武汉市,江夏区
尚城新界,商务住宅,住宅区,114.3096,30.351653,湖北省,武汉市,江夏区
畔山御景,商务住宅,住宅区,114.304823,30.350612,湖北省,武汉市,江夏区
富丽畅馨园,商务住宅,住宅区,114.314282,30.362297,湖北省,武汉市,江夏区
大桥居委会社区,商务住宅,住宅区,114.311297,30.408812,湖北省,武汉市,江夏区
大花岭小区东区,商务住宅,住宅区,114.312975,30.412098,湖北省,武汉市,江夏区
名城8090花园社区,商务住宅,住宅区,114.309497,30.4155,湖北省,武汉市,江夏区
楚夏花园,商务住宅,住宅区,114.308193,30.416503,湖北省,武汉市,江夏区
福地花园,商务住宅,住宅区,114.30786,30.418645,湖北省,武汉市,江夏区
华中城,商务住宅,住宅区,114.262014,30.413745,湖北省,武汉市,洪山区
世纪庭园,商务住宅,住宅区,114.334226,30.35718,湖北省,武汉市,江夏区
理想时代,商务住宅,住宅区,114.334247,30.359107,湖北省,武汉市,江夏区
江南名都,商务住宅,住宅区,114.335949,30.358324,湖北省,武汉市,江夏区
旭辉江夏府,商务住宅,住宅区,114.336888,30.357373,湖北省,武汉市,江夏区
江夏府,商务住宅,住宅区,114.33458,30.357138,湖北省,武汉市,江夏区
康丽齐心花园2期,商务住宅,住宅区,114.334057,30.358213,湖北省,武汉市,江夏区
公路世纪花园,商务住宅,住宅区,114.333552,30.359481,湖北省,武汉市,江夏区
香榭花都,商务住宅,住宅区,114.332871,30.356842,湖北省,武汉市,江夏区
公路新区,商务住宅,住宅区,114.332232,30.358793,湖北省,武汉市,江夏区
齐心花园,商务住宅,住宅区,114.342689,30.355364,湖北省,武汉市,江夏区
北华壹号,商务住宅,住宅区,114.340895,30.358623,湖北省,武汉市,江夏区
江夏一中家属社区,商务住宅,住宅区,114.341033,30.361228,湖北省,武汉市,江夏区
富丽奥林园,商务住宅,住宅区,114.335518,30.366312,湖北省,武汉市,江夏区
工会社区,商务住宅,住宅区,114.333703,30.36453,湖北省,武汉市,江夏区
鑫诚源社区,商务住宅,住宅区,114.332446,30.364197,湖北省,武汉市,江夏区
林业局社区,商务住宅,住宅区,114.334941,30.363548,湖北省,武汉市,江夏区
东湖路还建社区,商务住宅,住宅区,114.3326,30.365174,湖北省,武汉市,江夏区
利民社区,商务住宅,住宅区,114.341867,30.367714,湖北省,武汉市,江夏区
大桥村还建社区,商务住宅,住宅区,114.318775,30.370555,湖北省,武汉市,江夏区
水墨江郡南区,商务住宅,住宅区,114.326685,30.375293000000003,湖北省,武汉市,江夏区
水墨江郡,商务住宅,住宅区,114.326345,30.376243,湖北省,武汉市,江夏区
阳光100大湖第,商务住宅,住宅区,114.412146,30.399758,湖北省,武汉市,江夏区
博士园养发,商务住宅,住宅区,114.418501,30.400263,湖北省,武汉市,江夏区
金地湖山境,商务住宅,住宅区,114.420271,30.400499,湖北省,武汉市,江夏区
保利清能·西海岸南区,商务住宅,住宅区,114.415697,30.397397,湖北省,武汉市,江夏区
保利清能西海岸北区,商务住宅,住宅区,114.417526,30.404672,湖北省,武汉市,江夏区
保利清能·西海岸,商务住宅,住宅区,114.417226,30.40373,湖北省,武汉市,江夏区
龙园澜岸,商务住宅,住宅区,114.420299,30.402255,湖北省,武汉市,江夏区
汀兰园,商务住宅,住宅区,114.429306,30.41472,湖北省,武汉市,江夏区
邬树社区,商务住宅,住宅区,114.369114,30.390363,湖北省,武汉市,江夏区
美加史丹佛公馆,商务住宅,住宅区,114.373359,30.389185,湖北省,武汉市,江夏区
当代云城,商务住宅,住宅区,114.371075,30.391742,湖北省,武汉市,江夏区
逸境·HOUSE,商务住宅,住宅区,114.371167,30.391821,湖北省,武汉市,江夏区
加州橘郡,商务住宅,住宅区,114.375729,30.387864,湖北省,武汉市,江夏区
创业农场,商务住宅,住宅区,114.367005,30.393478,湖北省,武汉市,江夏区
庙山小区,商务住宅,住宅区,114.369972,30.396717,湖北省,武汉市,江夏区
保利海寓,商务住宅,住宅区,114.372007,30.396503,湖北省,武汉市,江夏区
宜家汤臣,商务住宅,住宅区,114.365145,30.404456,湖北省,武汉市,江夏区
圣宝龙,商务住宅,住宅区,114.36822,30.403324,湖北省,武汉市,江夏区
怡景江南,商务住宅,住宅区,114.365782,30.406523,湖北省,武汉市,江夏区
东方雨林,商务住宅,住宅区,114.366882,30.408463,湖北省,武汉市,江夏区
保利·海上五月花,商务住宅,住宅区,114.377411,30.406412,湖北省,武汉市,江夏区
保利·海上五月花2期,商务住宅,住宅区,114.374451,30.406023,湖北省,武汉市,江夏区
梅南山居梅南星座,商务住宅,住宅区,114.371248,30.411397,湖北省,武汉市,江夏区
梅南山居,商务住宅,住宅区,114.367739,30.413004,湖北省,武汉市,江夏区
泰驰伊顿阳光,商务住宅,住宅区,114.369544,30.40931,湖北省,武汉市,江夏区
华舟汀岸,商务住宅,住宅区,114.366277,30.409951,湖北省,武汉市,江夏区
绿水岸,商务住宅,住宅区,114.364302,30.409953,湖北省,武汉市,江夏区
梅南山居碧水轩,商务住宅,住宅区,114.365415,30.414786,湖北省,武汉市,江夏区
梅南山居香樟岭南岸,商务住宅,住宅区,114.363563,30.413124,湖北省,武汉市,江夏区
梅南山居香樟岭,商务住宅,住宅区,114.366392,30.412796,湖北省,武汉市,江夏区
湖光山色,商务住宅,住宅区,114.37653,30.414566,湖北省,武汉市,江夏区
梅南山居桂竹园,商务住宅,住宅区,114.371278,30.413916,湖北省,武汉市,江夏区
上坤·樾湖半岛,商务住宅,住宅区,114.376456,30.420406,湖北省,武汉市,江夏区
惠风同庆花园蜜糖镇,商务住宅,住宅区,114.437324,30.433714,湖北省,武汉市,江夏区
惠风同庆花园,商务住宅,住宅区,114.437082,30.433722,湖北省,武汉市,江夏区
金地·艺境,商务住宅,住宅区,114.43536,30.445410000000003,湖北省,武汉市,江夏区
艺境,商务住宅,住宅区,114.435291,30.444404,湖北省,武汉市,江夏区
万科·魅力之城,商务住宅,住宅区,114.437393,30.448303,湖北省,武汉市,江夏区
谷尚居,商务住宅,住宅区,114.433212,30.448313,湖北省,武汉市,江夏区
万科·魅力之城北区,商务住宅,住宅区,114.43695,30.449246,湖北省,武汉市,江夏区
紫薇苑,商务住宅,住宅区,114.379371,30.441093,湖北省,武汉市,江夏区
语林庄园,商务住宅,住宅区,114.377792,30.438616,湖北省,武汉市,江夏区
平安御园,商务住宅,住宅区,114.382278,30.439042,湖北省,武汉市,江夏区
玉龙岛花园1期,商务住宅,住宅区,114.378522,30.441258,湖北省,武汉市,江夏区
光谷·阳光海岸,商务住宅,住宅区,114.379993,30.438167,湖北省,武汉市,江夏区
南泥湾公寓,商务住宅,住宅区,114.385388,30.440824,湖北省,武汉市,江夏区
科技园区公寓,商务住宅,住宅区,114.403136,30.453875,湖北省,武汉市,江夏区
光谷领航公寓,商务住宅,住宅区,114.398003,30.454641,湖北省,武汉市,江夏区
中国铁建·梧桐园,商务住宅,住宅区,114.385231,30.453646,湖北省,武汉市,江夏区
韵湖星光,商务住宅,住宅区,114.383341,30.452602,湖北省,武汉市,江夏区
明辉丽居,商务住宅,住宅区,114.3787,30.450919,湖北省,武汉市,江夏区
名湖豪庭,商务住宅,住宅区,114.380625,30.457997,湖北省,武汉市,江夏区
南山樾府,商务住宅,住宅区,114.383024,30.458945,湖北省,武汉市,江夏区
汤逊湖周店社区,商务住宅,住宅区,114.384148,30.458388000000003,湖北省,武汉市,江夏区
丽岛·美生,商务住宅,住宅区,114.387354,30.458842,湖北省,武汉市,江夏区
宝业·光谷丽都,商务住宅,住宅区,114.380346,30.462344,湖北省,武汉市,江夏区
南湖社区和谐园社区,商务住宅,住宅区,114.377262,30.461455,湖北省,武汉市,江夏区
省直机关公务员社区,商务住宅,住宅区,114.383729,30.458643,湖北省,武汉市,江夏区
锦绣龙城G区,商务住宅,住宅区,114.385181,30.462659,湖北省,武汉市,江夏区
华师一附中教师公寓,商务住宅,住宅区,114.3949,30.456687,湖北省,武汉市,江夏区
茅店七期社区,商务住宅,住宅区,114.395328,30.457422,湖北省,武汉市,江夏区
光谷·麒麟社,商务住宅,住宅区,114.403977,30.460789,湖北省,武汉市,江夏区
汤逊湖小区,商务住宅,住宅区,114.399173,30.45978,湖北省,武汉市,江夏区
锦绣龙城,商务住宅,住宅区,114.386068,30.466063,湖北省,武汉市,江夏区
城市阳光,商务住宅,住宅区,114.385872,30.465736,湖北省,武汉市,江夏区
锦绣龙城小区A3栋,商务住宅,住宅区,114.38671,30.466958,湖北省,武汉市,江夏区
锦绣龙城小区A7栋,商务住宅,住宅区,114.387144,30.466304,湖北省,武汉市,江夏区
锦绣龙城小区A4栋,商务住宅,住宅区,114.387395,30.466556,湖北省,武汉市,江夏区
锦绣龙城F区,商务住宅,住宅区,114.387423,30.465114,湖北省,武汉市,江夏区
锦绣龙城B区,商务住宅,住宅区,114.388432,30.467432,湖北省,武汉市,江夏区
矿山社区,商务住宅,住宅区,114.390219,30.469469,湖北省,武汉市,江夏区
锦绣龙城C区,商务住宅,住宅区,114.390925,30.467309,湖北省,武汉市,江夏区
长城别园,商务住宅,住宅区,114.384019,30.468896,湖北省,武汉市,江夏区
津发社区,商务住宅,住宅区,114.381429,30.469661,湖北省,武汉市,江夏区
南波湾,商务住宅,住宅区,114.378451,30.469128,湖北省,武汉市,江夏区
光谷自由城,商务住宅,住宅区,114.380117,30.46832,湖北省,武汉市,江夏区
南波湾高尚小区4号楼,商务住宅,住宅区,114.378811,30.467038,湖北省,武汉市,江夏区
津发小区西区,商务住宅,住宅区,114.382053,30.469622,湖北省,武汉市,江夏区
万科红郡北区,商务住宅,住宅区,114.412675,30.456596,湖北省,武汉市,江夏区
现代·森林小镇,商务住宅,住宅区,114.417711,30.454878,湖北省,武汉市,江夏区
当代国际花园,商务住宅,住宅区,114.417275,30.460717,湖北省,武汉市,江夏区
当代·国际花园铂公馆,商务住宅,住宅区,114.419609,30.459988,湖北省,武汉市,江夏区
万科城市花园,商务住宅,住宅区,114.409496,30.46051,湖北省,武汉市,江夏区
VANKE GARDEN CITY上西十区,商务住宅,住宅区,114.409755,30.458757,湖北省,武汉市,江夏区
VANKE GARDEN CITY特一区,商务住宅,住宅区,114.408923,30.460383,湖北省,武汉市,江夏区
鹏翔花园,商务住宅,住宅区,114.431641,30.45698,湖北省,武汉市,江夏区
光谷金融港青年公寓,商务住宅,住宅区,114.4305,30.459092,湖北省,武汉市,江夏区
中建三局三公司住宅社区,商务住宅,住宅区,114.411108,30.46603,湖北省,武汉市,江夏区
当代花园绿地,商务住宅,住宅区,114.41175,30.462798,湖北省,武汉市,江夏区
江南小区,商务住宅,住宅区,114.416244,30.469705,湖北省,武汉市,江夏区
现代·国际设计城3期,商务住宅,住宅区,114.421447,30.470878,湖北省,武汉市,江夏区
万科·城花璟园,商务住宅,住宅区,114.414697,30.47166,湖北省,武汉市,洪山区
长城坐标城D区,商务住宅,住宅区,114.412362,30.474658,湖北省,武汉市,洪山区
长城坐标城G区,商务住宅,住宅区,114.41021,30.474243,湖北省,武汉市,洪山区
中建康城,商务住宅,住宅区,114.409755,30.471304,湖北省,武汉市,洪山区
长城坐标城H区,商务住宅,住宅区,114.415258,30.478116,湖北省,武汉市,洪山区
长城坐标城I区,商务住宅,住宅区,114.415986,30.476841,湖北省,武汉市,洪山区
坐标城,商务住宅,住宅区,114.416815,30.476615,湖北省,武汉市,洪山区
旭辉千山凌云,商务住宅,住宅区,114.419764,30.477753,湖北省,武汉市,洪山区
东湖高新区关东街关南小区,商务住宅,住宅区,114.433028,30.481104,湖北省,武汉市,江夏区
武汉东湖高新关南小区,商务住宅,住宅区,114.43531,30.481132,湖北省,武汉市,江夏区
中国光谷·关南工业园区-1号公寓,商务住宅,住宅区,114.434754,30.480324,湖北省,武汉市,江夏区
武汉东湖高新关南社区三期片区,商务住宅,住宅区,114.433079,30.482895,湖北省,武汉市,江夏区
关南社区四期,商务住宅,住宅区,114.43543,30.483161,湖北省,武汉市,江夏区
统建·天成美景,商务住宅,住宅区,114.436677,30.484351,湖北省,武汉市,江夏区
天成美雅,商务住宅,住宅区,114.437509,30.486542,湖北省,武汉市,江夏区
Free阁调,商务住宅,住宅区,114.419009,30.487027,湖北省,武汉市,洪山区
清江山水,商务住宅,住宅区,114.400648,30.473105,湖北省,武汉市,洪山区
东林外庐,商务住宅,住宅区,114.395558,30.474471,湖北省,武汉市,江夏区
正荣紫阙台,商务住宅,住宅区,114.397575,30.474521,湖北省,武汉市,江夏区
清江山水南区,商务住宅,住宅区,114.399813,30.471218,湖北省,武汉市,洪山区
东林外庐池渊庭,商务住宅,住宅区,114.396295,30.475024,湖北省,武汉市,江夏区
山水华庭,商务住宅,住宅区,114.396022,30.478711,湖北省,武汉市,江夏区
云顶居,商务住宅,住宅区,114.396159,30.477643,湖北省,武汉市,江夏区
东林外庐爱庐园,商务住宅,住宅区,114.396461,30.476145,湖北省,武汉市,江夏区
清江山水九程,商务住宅,住宅区,114.399707,30.477647,湖北省,武汉市,洪山区
东林外庐东篱园,商务住宅,住宅区,114.395426,30.475055,湖北省,武汉市,江夏区
东林外庐南山园,商务住宅,住宅区,114.395546,30.475663,湖北省,武汉市,江夏区
中远美寓,商务住宅,住宅区,114.394272,30.478113,湖北省,武汉市,江夏区
保利·心语3期,商务住宅,住宅区,114.326113,30.468463,湖北省,武汉市,洪山区
保利·心语1期,商务住宅,住宅区,114.326388,30.471085,湖北省,武汉市,洪山区
当代·安普顿小镇,商务住宅,住宅区,114.376199,30.457242,湖北省,武汉市,江夏区
安普顿小镇2·1期,商务住宅,住宅区,114.375355,30.457356,湖北省,武汉市,江夏区
天祥尚府,商务住宅,住宅区,114.372707,30.457372000000003,湖北省,武汉市,江夏区
湾郡小区,商务住宅,住宅区,114.375211,30.455425,湖北省,武汉市,江夏区
保利·心语4期,商务住宅,住宅区,114.327033,30.478892,湖北省,武汉市,洪山区
POLYXINYU,商务住宅,住宅区,114.326678,30.477996,湖北省,武汉市,洪山区
保利·心语2期,商务住宅,住宅区,114.326064,30.477117,湖北省,武汉市,洪山区
保利·心语南区,商务住宅,住宅区,114.324035,30.479264,湖北省,武汉市,洪山区
澜花语岸,商务住宅,住宅区,114.342947,30.480515,湖北省,武汉市,洪山区
瑞湖天地,商务住宅,住宅区,114.342972,30.482592,湖北省,武汉市,洪山区
国海学道,商务住宅,住宅区,114.344034,30.483572,湖北省,武汉市,洪山区
揽胜生态公园,商务住宅,住宅区,114.345623,30.481767,湖北省,武汉市,洪山区
碧桂园·碧乐城,商务住宅,住宅区,114.342233,30.480204,湖北省,武汉市,洪山区
泰然南湖玫瑰湾,商务住宅,住宅区,114.345531,30.485117,湖北省,武汉市,洪山区
锦南村社区,商务住宅,住宅区,114.341015,30.484786,湖北省,武汉市,洪山区
植物保护站社区,商务住宅,住宅区,114.340403,30.48412,湖北省,武汉市,洪山区
泰然南湖玫瑰湾1期,商务住宅,住宅区,114.346262,30.486069,湖北省,武汉市,洪山区
泰然南湖玫瑰湾3期,商务住宅,住宅区,114.345044,30.484984,湖北省,武汉市,洪山区
泰然南湖玫瑰湾2期,商务住宅,住宅区,114.343145,30.486677,湖北省,武汉市,洪山区
金地·西岸故事,商务住宅,住宅区,114.337255,30.483253,湖北省,武汉市,洪山区
华大花园,商务住宅,住宅区,114.334226,30.485294000000003,湖北省,武汉市,洪山区
保利·心语,商务住宅,住宅区,114.322961,30.479701,湖北省,武汉市,洪山区
明泽·第6区,商务住宅,住宅区,114.319534,30.480816,湖北省,武汉市,洪山区
马湖村六区还建楼,商务住宅,住宅区,114.319471,30.481968,湖北省,武汉市,洪山区
保利·心语8期,商务住宅,住宅区,114.32193,30.479132,湖北省,武汉市,洪山区
马湖新村H区,商务住宅,住宅区,114.326356,30.482665,湖北省,武汉市,洪山区
和铭青园,商务住宅,住宅区,114.327491,30.482212,湖北省,武汉市,洪山区
农业科学院专家公寓,商务住宅,住宅区,114.330193,30.480678,湖北省,武汉市,洪山区
丰华园,商务住宅,住宅区,114.330188,30.484712,湖北省,武汉市,洪山区
马应龙社区,商务住宅,住宅区,114.326962,30.486962,湖北省,武汉市,洪山区
南湖瑶园,商务住宅,住宅区,114.321434,30.486048,湖北省,武汉市,洪山区
红霞名园,商务住宅,住宅区,114.257233,30.432009,湖北省,武汉市,洪山区
红霞锦园,商务住宅,住宅区,114.259033,30.437037,湖北省,武汉市,洪山区
蓝城湖畔雲境,商务住宅,住宅区,114.259617,30.437144,湖北省,武汉市,洪山区
云隐城.青,商务住宅,住宅区,114.264667,30.457818,湖北省,武汉市,洪山区
凯撒公寓,商务住宅,住宅区,114.269393,30.457246,湖北省,武汉市,洪山区
旭辉都会山,商务住宅,住宅区,114.266556,30.459354,湖北省,武汉市,洪山区
武南铁路和谐佳园,商务住宅,住宅区,114.30517,30.474215,湖北省,武汉市,洪山区
武汉铁路局焊轨基地公寓,商务住宅,住宅区,114.303601,30.474661,湖北省,武汉市,洪山区
湖工南区900套,商务住宅,住宅区,114.306254,30.472638,湖北省,武汉市,洪山区
武南新村,商务住宅,住宅区,114.306505,30.474625,湖北省,武汉市,洪山区
湖工大-南区,商务住宅,住宅区,114.308942,30.474149,湖北省,武汉市,洪山区
武汉房建生活段武昌南公寓,商务住宅,住宅区,114.304017,30.472122,湖北省,武汉市,洪山区
湖工社区,商务住宅,住宅区,114.310045,30.474014,湖北省,武汉市,洪山区
湖北工业大学教师公寓,商务住宅,住宅区,114.308898,30.474605,湖北省,武汉市,洪山区
武南社区,商务住宅,住宅区,114.307661,30.476451,湖北省,武汉市,洪山区
闯生公寓,商务住宅,住宅区,114.313817,30.481905,湖北省,武汉市,洪山区
湖北工业大学职工住宅,商务住宅,住宅区,114.31234,30.484613,湖北省,武汉市,洪山区
湖北工业大学职工住宅,商务住宅,住宅区,114.312293,30.485255,湖北省,武汉市,洪山区
湖北工业大学-职工住宅,商务住宅,住宅区,114.312175,30.484691,湖北省,武汉市,洪山区
湖北工业大学职工住宅,商务住宅,住宅区,114.311834,30.484744,湖北省,武汉市,洪山区
万象新城三区,商务住宅,住宅区,114.295037,30.483187,湖北省,武汉市,洪山区
佳兆业金域天下3期,商务住宅,住宅区,114.294974,30.480459,湖北省,武汉市,洪山区
万象新城,商务住宅,住宅区,114.296368,30.484341,湖北省,武汉市,洪山区
波光霞影B区,商务住宅,住宅区,114.29143,30.48432,湖北省,武汉市,洪山区
秀园果品批发部,商务住宅,住宅区,114.288082,30.485275,湖北省,武汉市,洪山区
武汉新力城,商务住宅,住宅区,114.26025,30.471986,湖北省,武汉市,洪山区
水科所社区,商务住宅,住宅区,114.267336,30.471508,湖北省,武汉市,洪山区
观庭·金色世家A区,商务住宅,住宅区,114.262784,30.479042,湖北省,武汉市,洪山区
梦馨园,商务住宅,住宅区,114.257516,30.478419,湖北省,武汉市,洪山区
城开·青菱城市花园,商务住宅,住宅区,114.277499,30.471675,湖北省,武汉市,洪山区
青菱花园,商务住宅,住宅区,114.27743,30.471552,湖北省,武汉市,洪山区
青菱渔场社区,商务住宅,住宅区,114.277,30.472738,湖北省,武汉市,洪山区
华润·紫云府,商务住宅,住宅区,114.279737,30.472936,湖北省,武汉市,洪山区
南国都市,商务住宅,住宅区,114.281938,30.478532,湖北省,武汉市,洪山区
喜瑞都,商务住宅,住宅区,114.286109,30.476326,湖北省,武汉市,洪山区
华润·紫云府1期,商务住宅,住宅区,114.278969,30.47517,湖北省,武汉市,洪山区
世茂云锦,商务住宅,住宅区,114.281759,30.476823,湖北省,武汉市,洪山区
南国都市东区,商务住宅,住宅区,114.281552,30.47866,湖北省,武汉市,洪山区
南国都市1期,商务住宅,住宅区,114.281897,30.479604,湖北省,武汉市,洪山区
天地源荷景园,商务住宅,住宅区,114.276206,30.477318,湖北省,武汉市,洪山区
城际花园东区,商务住宅,住宅区,114.273572,30.479476,湖北省,武汉市,洪山区
城际花园西区,商务住宅,住宅区,114.272529,30.478676,湖北省,武汉市,洪山区
城际花园,商务住宅,住宅区,114.273581,30.478342,湖北省,武汉市,洪山区
鑫宇花园,商务住宅,住宅区,114.282649,30.484928,湖北省,武汉市,洪山区
青润家园南区,商务住宅,住宅区,114.282146,30.487252,湖北省,武汉市,洪山区
湖北第二师范学院职工住宅社区,商务住宅,住宅区,114.285336,30.486596,湖北省,武汉市,洪山区
青青花园,商务住宅,住宅区,114.276251,30.48508,湖北省,武汉市,洪山区
万科金色城市南区,商务住宅,住宅区,114.260064,30.479254,湖北省,武汉市,洪山区
万科金色城市北区,商务住宅,住宅区,114.261926,30.481393,湖北省,武汉市,洪山区
万科金色城市20地块,商务住宅,住宅区,114.258204,30.481818,湖北省,武汉市,洪山区
万科金色城市北2区,商务住宅,住宅区,114.259174,30.482801,湖北省,武汉市,洪山区
万科金色城市西区,商务住宅,住宅区,114.258121,30.481408,湖北省,武汉市,洪山区
世茂云锦玉海园,商务住宅,住宅区,114.264117,30.480148,湖北省,武汉市,洪山区
菜科所社区,商务住宅,住宅区,114.27123,30.479783,湖北省,武汉市,洪山区
长江鑫都B区,商务住宅,住宅区,114.264548,30.487661,湖北省,武汉市,洪山区
长江鑫都C区,商务住宅,住宅区,114.266238,30.486449,湖北省,武汉市,洪山区
城投联投江南岸,商务住宅,住宅区,114.262522,30.485662,湖北省,武汉市,洪山区
万科金色城市3期,商务住宅,住宅区,114.260713,30.483504,湖北省,武汉市,洪山区
万科金色城市-珐琅金区,商务住宅,住宅区,114.262698,30.484143,湖北省,武汉市,洪山区
光谷芯中心2期,商务住宅,住宅区,114.444206,30.418486,湖北省,武汉市,江夏区
中海·光谷锦城,商务住宅,住宅区,114.44737,30.427428000000003,湖北省,武汉市,江夏区
当代卡梅尔小镇,商务住宅,住宅区,114.440468,30.426476,湖北省,武汉市,江夏区
藏龙新城社区,商务住宅,住宅区,114.441276,30.429122000000003,湖北省,武汉市,江夏区
佛祖岭A区,商务住宅,住宅区,114.445754,30.437509,湖北省,武汉市,江夏区
天纵水晶郦都2期,商务住宅,住宅区,114.440216,30.433695,湖北省,武汉市,江夏区
锦东,商务住宅,住宅区,114.443963,30.435333,湖北省,武汉市,江夏区
佛祖岭B区,商务住宅,住宅区,114.445023,30.441116,湖北省,武汉市,江夏区
佛祖岭C小区,商务住宅,住宅区,114.443986,30.443625,湖北省,武汉市,江夏区
佛祖岭D区西区,商务住宅,住宅区,114.439755,30.443852,湖北省,武汉市,江夏区
佛祖岭,商务住宅,住宅区,114.443925,30.444114,湖北省,武汉市,江夏区
佛祖岭小区,商务住宅,住宅区,114.443793,30.444245,湖北省,武汉市,江夏区
佛祖岭D区,商务住宅,住宅区,114.443001,30.446473,湖北省,武汉市,江夏区
万科魅力之城南区,商务住宅,住宅区,114.439351,30.446306,湖北省,武汉市,江夏区
万科魅力之城南区15区,商务住宅,住宅区,114.439648,30.446421,湖北省,武汉市,江夏区
旭辉·御府,商务住宅,住宅区,114.44784,30.451908,湖北省,武汉市,江夏区
新芯花园,商务住宅,住宅区,114.451188,30.452339,湖北省,武汉市,江夏区
Lenovo家园,商务住宅,住宅区,114.450977,30.451057,湖北省,武汉市,江夏区
豹澥镇新春新村,商务住宅,住宅区,114.549491,30.455757,湖北省,武汉市,江夏区
车站社区,商务住宅,住宅区,114.549442,30.45789,湖北省,武汉市,江夏区
豹澥还建社区4区,商务住宅,住宅区,114.557256,30.458032,湖北省,武汉市,江夏区
豹澥新镇2期6期,商务住宅,住宅区,114.554508,30.457299000000003,湖北省,武汉市,江夏区
九龙湖小区,商务住宅,住宅区,114.557655,30.459708000000003,湖北省,武汉市,江夏区
豹澥小区,商务住宅,住宅区,114.548599,30.459191,湖北省,武汉市,江夏区
碧家林里,商务住宅,住宅区,114.442496,30.461501,湖北省,武汉市,江夏区
人才公寓光谷三路,商务住宅,住宅区,114.479534,30.481858,湖北省,武汉市,洪山区
国药器械公寓,商务住宅,住宅区,114.480641,30.48216,湖北省,武汉市,洪山区
城市之光,商务住宅,住宅区,114.438408,30.473182,湖北省,武汉市,江夏区
宜盛花园,商务住宅,住宅区,114.439932,30.473343,湖北省,武汉市,江夏区
佳源花都,商务住宅,住宅区,114.446784,30.473173000000003,湖北省,武汉市,江夏区
金谷明珠园小区西区,商务住宅,住宅区,114.444112,30.477708,湖北省,武汉市,江夏区
光谷和昌城·逸园,商务住宅,住宅区,114.440303,30.475821,湖北省,武汉市,江夏区
光谷悦城,商务住宅,住宅区,114.441007,30.478317,湖北省,武汉市,江夏区
金谷明珠园社区,商务住宅,住宅区,114.444876,30.479743,湖北省,武汉市,江夏区
国创光谷上城,商务住宅,住宅区,114.447133,30.486016,湖北省,武汉市,江夏区
湖口小区,商务住宅,住宅区,114.442958,30.48577,湖北省,武汉市,江夏区
万科嘉园·光谷的光,商务住宅,住宅区,114.44523,30.497819,湖北省,武汉市,洪山区
文华学院家属区,商务住宅,住宅区,114.438522,30.497381,湖北省,武汉市,洪山区
文华教师公寓,商务住宅,住宅区,114.44397,30.496605,湖北省,武汉市,洪山区
万科·嘉园,商务住宅,住宅区,114.445285,30.49903,湖北省,武汉市,洪山区
成园社区,商务住宅,住宅区,114.442157,30.498504,湖北省,武汉市,洪山区
蓝光COCO时代,商务住宅,住宅区,114.451256,30.499740000000003,湖北省,武汉市,洪山区
长山铺社区,商务住宅,住宅区,114.450684,30.501776,湖北省,武汉市,洪山区
新世界恒大华府,商务住宅,住宅区,114.443227,30.503075,湖北省,武汉市,洪山区
武汉新世界恒大华府,商务住宅,住宅区,114.441867,30.502002,湖北省,武汉市,洪山区
恒大华府B区,商务住宅,住宅区,114.445284,30.502893,湖北省,武汉市,洪山区
九峰街·德欣里小区,商务住宅,住宅区,114.482109,30.500082000000003,湖北省,武汉市,洪山区
九峰街·同安里小区,商务住宅,住宅区,114.476834,30.497765,湖北省,武汉市,洪山区
中建·星光城,商务住宅,住宅区,114.480083,30.496019,湖北省,武汉市,洪山区
九峰街·德欣里社区西园,商务住宅,住宅区,114.480389,30.49883,湖北省,武汉市,洪山区
samsung苑,商务住宅,住宅区,114.48215,30.501060000000003,湖北省,武汉市,洪山区
九峰街·景源里小区,商务住宅,住宅区,114.482488,30.504058,湖北省,武汉市,洪山区
同安里社区2期,商务住宅,住宅区,114.477949,30.502532,湖北省,武汉市,洪山区
九峰街·景源里社区,商务住宅,住宅区,114.480911,30.503977,湖北省,武汉市,洪山区
花城家园梅园,商务住宅,住宅区,114.514296,30.52034,湖北省,武汉市,洪山区
花城家园橘园,商务住宅,住宅区,114.517021,30.523137,湖北省,武汉市,洪山区
花城花园,商务住宅,住宅区,114.523516,30.521695,湖北省,武汉市,洪山区
花城家园李园,商务住宅,住宅区,114.522057,30.523792,湖北省,武汉市,洪山区
花城家园杏园,商务住宅,住宅区,114.525567,30.523078,湖北省,武汉市,洪山区
花城家园桂园,商务住宅,住宅区,114.525241,30.521208,湖北省,武汉市,洪山区
铁花小园,商务住宅,住宅区,114.517025,30.525267,湖北省,武汉市,洪山区
世茂十里星河,商务住宅,住宅区,114.60751,30.489584,湖北省,武汉市,洪山区
智苑社区,商务住宅,住宅区,114.610919,30.489839,湖北省,武汉市,洪山区
左岭新城,商务住宅,住宅区,114.618789,30.489686,湖北省,武汉市,洪山区
左岭街玉泉小区,商务住宅,住宅区,114.614576,30.492871,湖北省,武汉市,洪山区
左岭街白浒小区,商务住宅,住宅区,114.615553,30.495106,湖北省,武汉市,洪山区
左岭佳苑社区,商务住宅,住宅区,114.609401,30.49462,湖北省,武汉市,洪山区
湖畔花园,商务住宅,住宅区,114.457501,30.572869,湖北省,武汉市,青山区
西湖社区,商务住宅,住宅区,114.455869,30.572499,湖北省,武汉市,青山区
科技公寓,商务住宅,住宅区,114.456795,30.573124,湖北省,武汉市,青山区
武东陆鹞社区,商务住宅,住宅区,114.455926,30.574127,湖北省,武汉市,青山区
兴中小区,商务住宅,住宅区,114.462956,30.578491,湖北省,武汉市,青山区
宁安社区,商务住宅,住宅区,114.461451,30.577901,湖北省,武汉市,青山区
宁静社区,商务住宅,住宅区,114.462143,30.577974,湖北省,武汉市,青山区
金桂园,商务住宅,住宅区,114.454335,30.576569,湖北省,武汉市,青山区
武东街铸锻小区,商务住宅,住宅区,114.458172,30.57674,湖北省,武汉市,青山区
新村大院,商务住宅,住宅区,114.455681,30.576034,湖北省,武汉市,青山区
康宁小区,商务住宅,住宅区,114.488227,30.604729,湖北省,武汉市,青山区
白玉山康宁物业社区,商务住宅,住宅区,114.487474,30.605454,湖北省,武汉市,青山区
怡景雅居,商务住宅,住宅区,114.488041,30.603816,湖北省,武汉市,青山区
康达小区,商务住宅,住宅区,114.488295,30.607107,湖北省,武汉市,青山区
北湖花园A区,商务住宅,住宅区,114.485307,30.607137,湖北省,武汉市,青山区
北湖花园,商务住宅,住宅区,114.484566,30.607329,湖北省,武汉市,青山区
八吉鑫府社区,商务住宅,住宅区,114.495967,30.604652,湖北省,武汉市,青山区
怡景雅居东园,商务住宅,住宅区,114.491797,30.603984,湖北省,武汉市,青山区
黎明小区南区,商务住宅,住宅区,114.491887,30.606137,湖北省,武汉市,青山区
黎明小区北区,商务住宅,住宅区,114.491205,30.607348,湖北省,武汉市,青山区
向家尾村小区-南区,商务住宅,住宅区,114.49369,30.605071,湖北省,武汉市,青山区
群居欣园特一号,商务住宅,住宅区,114.491839,30.609887,湖北省,武汉市,青山区
宏泰御景,商务住宅,住宅区,114.485849,30.60912,湖北省,武汉市,青山区
康乐小区,商务住宅,住宅区,114.486511,30.609609,湖北省,武汉市,青山区
群居欣苑社区,商务住宅,住宅区,114.49112,30.608821,湖北省,武汉市,青山区
康寿小区,商务住宅,住宅区,114.484199,30.608351,湖北省,武汉市,青山区
蓝空南太子湖,商务住宅,住宅区,114.201938,30.498791,湖北省,武汉市,汉阳区
禹洲·朗廷元著,商务住宅,住宅区,114.200596,30.500409,湖北省,武汉市,汉阳区
省金属居民社区,商务住宅,住宅区,114.246263,30.51406,湖北省,武汉市,汉阳区
湖北路桥青年公寓,商务住宅,住宅区,114.24796,30.513466,湖北省,武汉市,汉阳区
恒大御景湾,商务住宅,住宅区,114.25038,30.514124,湖北省,武汉市,汉阳区
滨江·怡畅园,商务住宅,住宅区,114.253969,30.519374,湖北省,武汉市,汉阳区
新港·临江汇,商务住宅,住宅区,114.252333,30.517902,湖北省,武汉市,汉阳区
金地·兰亭世家,商务住宅,住宅区,114.232562,30.516474,湖北省,武汉市,汉阳区
金桥公馆,商务住宅,住宅区,114.22602,30.51615,湖北省,武汉市,汉阳区
金桥泊岸,商务住宅,住宅区,114.229669,30.515847,湖北省,武汉市,汉阳区
广电兰亭盛荟广电兰亭盛荟6期,商务住宅,住宅区,114.231649,30.515857,湖北省,武汉市,汉阳区
广电兰亭盛荟,商务住宅,住宅区,114.235478,30.514733,湖北省,武汉市,汉阳区
越秀·星悦湾畔,商务住宅,住宅区,114.239303,30.513541,湖北省,武汉市,汉阳区
新城印象,商务住宅,住宅区,114.237377,30.517197,湖北省,武汉市,汉阳区
江城国际,商务住宅,住宅区,114.236062,30.518261,湖北省,武汉市,汉阳区
武汉正荣府,商务住宅,住宅区,114.227545,30.520129,湖北省,武汉市,汉阳区
中铁锦湖园,商务住宅,住宅区,114.229194,30.517275,湖北省,武汉市,汉阳区
庭瑞U-ME,商务住宅,住宅区,114.198622,30.505929,湖北省,武汉市,汉阳区
金地·澜菲溪岸,商务住宅,住宅区,114.21047,30.51086,湖北省,武汉市,汉阳区
太子湖畔星园,商务住宅,住宅区,114.197908,30.512301,湖北省,武汉市,汉阳区
新新人家,商务住宅,住宅区,114.196809,30.510483,湖北省,武汉市,汉阳区
神龙派出所新新小区,商务住宅,住宅区,114.195616,30.509216,湖北省,武汉市,汉阳区
广电·兰亭时代,商务住宅,住宅区,114.215395,30.508158,湖北省,武汉市,汉阳区
新力琥珀园,商务住宅,住宅区,114.218945,30.506862,湖北省,武汉市,汉阳区
恒大翡翠华庭,商务住宅,住宅区,114.220841,30.50671,湖北省,武汉市,汉阳区
江城明珠,商务住宅,住宅区,114.2194,30.509458,湖北省,武汉市,汉阳区
城投·四新之光,商务住宅,住宅区,114.223591,30.512482,湖北省,武汉市,汉阳区
中核时代广场,商务住宅,住宅区,114.219567,30.514991,湖北省,武汉市,汉阳区
上海府邸,商务住宅,住宅区,114.225621,30.520701,湖北省,武汉市,汉阳区
中铁世纪金桥碧海园,商务住宅,住宅区,114.225334,30.517035,湖北省,武汉市,汉阳区
光明上海府邸,商务住宅,住宅区,114.224878,30.519127,湖北省,武汉市,汉阳区
绿地中央广场D区,商务住宅,住宅区,114.213955,30.518411,湖北省,武汉市,汉阳区
绿地中央广场A区,商务住宅,住宅区,114.216707,30.517407,湖北省,武汉市,汉阳区
绿地中央广场,商务住宅,住宅区,114.214377,30.516948000000003,湖北省,武汉市,汉阳区
金地澜菲溪岸,商务住宅,住宅区,114.210511,30.512422,湖北省,武汉市,汉阳区
新城·璟悦城,商务住宅,住宅区,114.205297,30.518004,湖北省,武汉市,汉阳区
新城·璟棠,商务住宅,住宅区,114.201658,30.519767,湖北省,武汉市,汉阳区
太子尚品,商务住宅,住宅区,114.200214,30.517285,湖北省,武汉市,汉阳区
波光霞影,商务住宅,住宅区,114.290464,30.488602,湖北省,武汉市,洪山区
复地悦城,商务住宅,住宅区,114.293505,30.49022,湖北省,武汉市,洪山区
复地悦城1期,商务住宅,住宅区,114.290118,30.490836,湖北省,武汉市,洪山区
张家湾街道光霞小区,商务住宅,住宅区,114.293107,30.487932,湖北省,武汉市,洪山区
复地悦城东区,商务住宅,住宅区,114.295983,30.490286,湖北省,武汉市,洪山区
保利新武昌,商务住宅,住宅区,114.296047,30.495411,湖北省,武汉市,洪山区
楚天·雅园,商务住宅,住宅区,114.295037,30.492385,湖北省,武汉市,洪山区
张家湾小区,商务住宅,住宅区,114.287181,30.495596,湖北省,武汉市,洪山区
保利上城,商务住宅,住宅区,114.290051,30.495388,湖北省,武汉市,洪山区
张家湾街烽火小区,商务住宅,住宅区,114.287583,30.492583,湖北省,武汉市,洪山区
军威苑社区,商务住宅,住宅区,114.312704,30.493633000000003,湖北省,武汉市,洪山区
七一二所小区,商务住宅,住宅区,114.309996,30.49454,湖北省,武汉市,洪山区
金地·圣爱米伦2期,商务住宅,住宅区,114.314101,30.492829,湖北省,武汉市,洪山区
红旗欣居C区,商务住宅,住宅区,114.30506,30.495025,湖北省,武汉市,洪山区
东原晴天见,商务住宅,住宅区,114.306914,30.49868,湖北省,武汉市,洪山区
红旗欣居,商务住宅,住宅区,114.304485,30.497419,湖北省,武汉市,洪山区
红旗欣居B区,商务住宅,住宅区,114.306609,30.501609,湖北省,武汉市,洪山区
保利·生态公园九里东区,商务住宅,住宅区,114.309317,30.502687,湖北省,武汉市,洪山区
天工社区,商务住宅,住宅区,114.287817,30.495745,湖北省,武汉市,洪山区
城建都市泊寓,商务住宅,住宅区,114.287125,30.497928,湖北省,武汉市,洪山区
保利上城·首座,商务住宅,住宅区,114.289439,30.497238,湖北省,武汉市,洪山区
锦绣江城,商务住宅,住宅区,114.293439,30.498094,湖北省,武汉市,洪山区
烽火·尚品虹城,商务住宅,住宅区,114.28939,30.5051,湖北省,武汉市,武昌区
列电新村,商务住宅,住宅区,114.293941,30.508537,湖北省,武汉市,武昌区
郁馨花园2期,商务住宅,住宅区,114.296099,30.508940000000003,湖北省,武汉市,武昌区
梧桐花园,商务住宅,住宅区,114.299986,30.509025,湖北省,武汉市,武昌区
烽火新村,商务住宅,住宅区,114.301486,30.509433,湖北省,武汉市,武昌区
平安花园,商务住宅,住宅区,114.300367,30.5105,湖北省,武汉市,武昌区
郁馨花园1期,商务住宅,住宅区,114.297144,30.50832,湖北省,武汉市,武昌区
堤后小区,商务住宅,住宅区,114.289156,30.511586,湖北省,武汉市,武昌区
保利·生态公园九里,商务住宅,住宅区,114.306725,30.508059,湖北省,武汉市,洪山区
清雅园,商务住宅,住宅区,114.306889,30.50399,湖北省,武汉市,洪山区
南湖保利生态公园九里北区,商务住宅,住宅区,114.30608,30.508488,湖北省,武汉市,洪山区
检察院德福园,商务住宅,住宅区,114.301192,30.511034,湖北省,武汉市,武昌区
丰收社区,商务住宅,住宅区,114.30245,30.515062,湖北省,武汉市,武昌区
汇丰花园,商务住宅,住宅区,114.302405,30.512494,湖北省,武汉市,武昌区
红旗欣居A区,商务住宅,住宅区,114.308017,30.512238,湖北省,武汉市,洪山区
长江紫都七期,商务住宅,住宅区,114.287651,30.515642,湖北省,武汉市,武昌区
鹏程·中泰花园,商务住宅,住宅区,114.294084,30.514275,湖北省,武汉市,武昌区
长江紫都一期-紫薇园,商务住宅,住宅区,114.287688,30.514481,湖北省,武汉市,武昌区
星火名园,商务住宅,住宅区,114.295953,30.516817,湖北省,武汉市,武昌区
堤东小区,商务住宅,住宅区,114.295787,30.520495,湖北省,武汉市,武昌区
万福广场,商务住宅,住宅区,114.295281,30.521073,湖北省,武汉市,武昌区
新长江·新,商务住宅,住宅区,114.30149,30.520861,湖北省,武汉市,武昌区
世纪新长江,商务住宅,住宅区,114.301017,30.520432000000003,湖北省,武汉市,武昌区
堤东花园,商务住宅,住宅区,114.295028,30.517322,湖北省,武汉市,武昌区
船梦园社区,商务住宅,住宅区,114.293269,30.51823,湖北省,武汉市,武昌区
二完社区,商务住宅,住宅区,114.257187,30.52503,湖北省,武汉市,汉阳区
复地·海上海,商务住宅,住宅区,114.260879,30.52116,湖北省,武汉市,汉阳区
二院小区,商务住宅,住宅区,114.257117,30.524405,湖北省,武汉市,汉阳区
龙湖·春江彼岸,商务住宅,住宅区,114.257254,30.522115,湖北省,武汉市,汉阳区
洲头社区,商务住宅,住宅区,114.256571,30.523425,湖北省,武汉市,汉阳区
港务村,商务住宅,住宅区,114.256856,30.520696,湖北省,武汉市,汉阳区
长航新村,商务住宅,住宅区,114.256808,30.521598,湖北省,武汉市,汉阳区
芳卉园,商务住宅,住宅区,114.263763,30.5281,湖北省,武汉市,汉阳区
锦绣长江,商务住宅,住宅区,114.265527,30.530253,湖北省,武汉市,汉阳区
世茂锦绣长江D区,商务住宅,住宅区,114.26501,30.531387,湖北省,武汉市,汉阳区
油田社区,商务住宅,住宅区,114.26573,30.53635,湖北省,武汉市,汉阳区
枫华园,商务住宅,住宅区,114.264162,30.536366,湖北省,武汉市,汉阳区
福星惠誉福园,商务住宅,住宅区,114.264118,30.534536,湖北省,武汉市,汉阳区
瓜堤后地,商务住宅,住宅区,114.264902,30.534328,湖北省,武汉市,汉阳区
枫华锦都,商务住宅,住宅区,114.264547,30.537214,湖北省,武汉市,汉阳区
世茂外滩,商务住宅,住宅区,114.270437,30.53476,湖北省,武汉市,汉阳区
世茂锦绣长江4期,商务住宅,住宅区,114.267888,30.536153,湖北省,武汉市,汉阳区
汉阳福园,商务住宅,住宅区,114.265378,30.533597,湖北省,武汉市,汉阳区
康泰园,商务住宅,住宅区,114.258644,30.534401000000003,湖北省,武汉市,汉阳区
雅居苑社区,商务住宅,住宅区,114.262755,30.534065,湖北省,武汉市,汉阳区
钢管社区,商务住宅,住宅区,114.261061,30.535418,湖北省,武汉市,汉阳区
旅游社区,商务住宅,住宅区,114.260975,30.536564,湖北省,武汉市,汉阳区
盛世名门,商务住宅,住宅区,114.260494,30.534103,湖北省,武汉市,汉阳区
梅花苑小区,商务住宅,住宅区,114.293505,30.524319,湖北省,武汉市,武昌区
山河·江景阁,商务住宅,住宅区,114.292939,30.522587,湖北省,武汉市,武昌区
解放桥社区,商务住宅,住宅区,114.295013,30.524937,湖北省,武汉市,武昌区
平房社区,商务住宅,住宅区,114.294715,30.521071,湖北省,武汉市,武昌区
八铺街小区,商务住宅,住宅区,114.295874,30.524800000000003,湖北省,武汉市,武昌区
武庆花园,商务住宅,住宅区,114.294247,30.524354,湖北省,武汉市,武昌区
汇文新都,商务住宅,住宅区,114.297405,30.527214,湖北省,武汉市,武昌区
福星园,商务住宅,住宅区,114.296425,30.527691,湖北省,武汉市,武昌区
望江公寓,商务住宅,住宅区,114.294727,30.526906,湖北省,武汉市,武昌区
康华园,商务住宅,住宅区,114.298427,30.527008,湖北省,武汉市,武昌区
解放桥公寓,商务住宅,住宅区,114.29432,30.528207,湖北省,武汉市,武昌区
兴安花园,商务住宅,住宅区,114.299482,30.528416,湖北省,武汉市,武昌区
保安街102社区,商务住宅,住宅区,114.297707,30.527949000000003,湖北省,武汉市,武昌区
广里堤,商务住宅,住宅区,114.299179,30.528303,湖北省,武汉市,武昌区
保安街136社区,商务住宅,住宅区,114.299648,30.527971,湖北省,武汉市,武昌区
鲇鱼套社区,商务住宅,住宅区,114.292817,30.527665,湖北省,武汉市,武昌区
汇文新都C区,商务住宅,住宅区,114.303449,30.522308,湖北省,武汉市,武昌区
汇文新都D区,商务住宅,住宅区,114.302657,30.523929,湖北省,武汉市,武昌区
明伦公馆,商务住宅,住宅区,114.307794,30.521685,湖北省,武汉市,武昌区
梅山公寓,商务住宅,住宅区,114.30848,30.523686,湖北省,武汉市,武昌区
明伦社区,商务住宅,住宅区,114.307074,30.521374,湖北省,武汉市,武昌区
合纤大院,商务住宅,住宅区,114.307561,30.52333,湖北省,武汉市,武昌区
起义街55小区,商务住宅,住宅区,114.306446,30.524348,湖北省,武汉市,武昌区
相国花园027小区,商务住宅,住宅区,114.315626,30.521258,湖北省,武汉市,洪山区
白鳍豚商业大厦,商务住宅,住宅区,114.309013,30.524518,湖北省,武汉市,武昌区
中山路683号院,商务住宅,住宅区,114.310129,30.522235,湖北省,武汉市,武昌区
六八三社区,商务住宅,住宅区,114.309772,30.522534,湖北省,武汉市,武昌区
湖北化肥驻汉社区,商务住宅,住宅区,114.310362,30.521469,湖北省,武汉市,武昌区
南大门社区,商务住宅,住宅区,114.309544,30.521074,湖北省,武汉市,武昌区
东海湾,商务住宅,住宅区,114.311333,30.527752,湖北省,武汉市,武昌区
特1号花园,商务住宅,住宅区,114.302543,30.527938,湖北省,武汉市,武昌区
湖滨村社区,商务住宅,住宅区,114.302194,30.528688,湖北省,武汉市,武昌区
南海湾,商务住宅,住宅区,114.308897,30.527981,湖北省,武汉市,武昌区
民政厅社区,商务住宅,住宅区,114.307743,30.528207,湖北省,武汉市,武昌区
湖滨村1号社区,商务住宅,住宅区,114.302676,30.528959,湖北省,武汉市,武昌区
园林社区,商务住宅,住宅区,114.303146,30.527419,湖北省,武汉市,武昌区
卧佛庵堂大院,商务住宅,住宅区,114.305188,30.525256,湖北省,武汉市,武昌区
紫湖村,商务住宅,住宅区,114.302048,30.531769,湖北省,武汉市,武昌区
紫湖村25社区,商务住宅,住宅区,114.302843,30.532099,湖北省,武汉市,武昌区
首义路178号院,商务住宅,住宅区,114.308244,30.531673,湖北省,武汉市,武昌区
紫湖村26号社区,商务住宅,住宅区,114.302931,30.531973,湖北省,武汉市,武昌区
紫湖村附20号社区,商务住宅,住宅区,114.302223,30.530721,湖北省,武汉市,武昌区
北海湾,商务住宅,住宅区,114.309637,30.530708,湖北省,武汉市,武昌区
欣隆紫阳园,商务住宅,住宅区,114.312754,30.532092,湖北省,武汉市,武昌区
江零南园,商务住宅,住宅区,114.312816,30.531901,湖北省,武汉市,武昌区
安华锦悦,商务住宅,住宅区,114.316581,30.532726,湖北省,武汉市,武昌区
复兴路社区,商务住宅,住宅区,114.301394,30.536063,湖北省,武汉市,武昌区
紫阳之星,商务住宅,住宅区,114.296521,30.535092,湖北省,武汉市,武昌区
紫阳街解放路小区,商务住宅,住宅区,114.296096,30.533405,湖北省,武汉市,武昌区
城市花园,商务住宅,住宅区,114.30035,30.536744,湖北省,武汉市,武昌区
金厦社区,商务住宅,住宅区,114.297674,30.534909,湖北省,武汉市,武昌区
大歌笛湖社区,商务住宅,住宅区,114.300276,30.533034,湖北省,武汉市,武昌区
花堤街社区,商务住宅,住宅区,114.292608,30.53817,湖北省,武汉市,武昌区
江畔新城,商务住宅,住宅区,114.293704,30.542504,湖北省,武汉市,武昌区
平湖门社区,商务住宅,住宅区,114.293303,30.542475,湖北省,武汉市,武昌区
黄鹤楼道社区,商务住宅,住宅区,114.293586,30.544284,湖北省,武汉市,武昌区
翠微福园,商务住宅,住宅区,114.262607,30.539981,湖北省,武汉市,汉阳区
夹河馨居,商务住宅,住宅区,114.262852,30.538538,湖北省,武汉市,汉阳区
城市晶品翠微新城,商务住宅,住宅区,114.261101,30.540712000000003,湖北省,武汉市,汉阳区
人防社区,商务住宅,住宅区,114.261274,30.539388,湖北省,武汉市,汉阳区
模范居,商务住宅,住宅区,114.262289,30.53913,湖北省,武汉市,汉阳区
和谐居,商务住宅,住宅区,114.262157,30.539917000000003,湖北省,武汉市,汉阳区
江腾园A1区,商务住宅,住宅区,114.25663,30.53865,湖北省,武汉市,汉阳区
睦邻居,商务住宅,住宅区,114.262575,30.53964,湖北省,武汉市,汉阳区
诚信居,商务住宅,住宅区,114.262,30.540253,湖北省,武汉市,汉阳区
武汉城建汉阳印象,商务住宅,住宅区,114.259361,30.540373,湖北省,武汉市,汉阳区
燕归园,商务住宅,住宅区,114.257785,30.541706,湖北省,武汉市,汉阳区
福地华庭,商务住宅,住宅区,114.262492,30.543582,湖北省,武汉市,汉阳区
翠微品墅,商务住宅,住宅区,114.259052,30.543447,湖北省,武汉市,汉阳区
武汉城建•明镜台,商务住宅,住宅区,114.256353,30.543415,湖北省,武汉市,汉阳区
翠微新城南区,商务住宅,住宅区,114.260157,30.541642,湖北省,武汉市,汉阳区
世茂锦绣长江,商务住宅,住宅区,114.274676,30.541241,湖北省,武汉市,汉阳区
锦绣长江1期,商务住宅,住宅区,114.275294,30.541063,湖北省,武汉市,汉阳区
鹦鹉花园,商务住宅,住宅区,114.272071,30.542820000000003,湖北省,武汉市,汉阳区
新江公寓,商务住宅,住宅区,114.27431,30.545135,湖北省,武汉市,汉阳区
南城社区,商务住宅,住宅区,114.27268,30.545647,湖北省,武汉市,汉阳区
迎江华庭,商务住宅,住宅区,114.27762,30.545675000000003,湖北省,武汉市,汉阳区
江御府,商务住宅,住宅区,114.276509,30.544947,湖北省,武汉市,汉阳区
水天蓝月,商务住宅,住宅区,114.274525,30.545799,湖北省,武汉市,汉阳区
洲尾社区,商务住宅,住宅区,114.278108,30.545436,湖北省,武汉市,汉阳区
望江花园,商务住宅,住宅区,114.279316,30.54753,湖北省,武汉市,汉阳区
莲花湖公寓,商务住宅,住宅区,114.278841,30.55245,湖北省,武汉市,汉阳区
远洋归元,商务住宅,住宅区,114.263709,30.546104,湖北省,武汉市,汉阳区
远洋东方镜世界观1期,商务住宅,住宅区,114.260436,30.548688,湖北省,武汉市,汉阳区
复地翠微新城北区,商务住宅,住宅区,114.256969,30.548446,湖北省,武汉市,汉阳区
复地翠微新城2期,商务住宅,住宅区,114.25949,30.547319,湖北省,武汉市,汉阳区
复地翠微新城1期,商务住宅,住宅区,114.260732,30.5473,湖北省,武汉市,汉阳区
琴台公寓,商务住宅,住宅区,114.263085,30.55085,湖北省,武汉市,汉阳区
琴台小区,商务住宅,住宅区,114.261053,30.550836,湖北省,武汉市,汉阳区
毛家堤社区,商务住宅,住宅区,114.26306,30.549401,湖北省,武汉市,汉阳区
杨家岭社区,商务住宅,住宅区,114.258562,30.550226,湖北省,武汉市,汉阳区
车站社区,商务住宅,住宅区,114.257977,30.551343,湖北省,武汉市,汉阳区
远洋东方境世界观,商务住宅,住宅区,114.259024,30.549650000000003,湖北省,武汉市,汉阳区
武汉华之泰爱心花园,商务住宅,住宅区,114.260154,30.553227,湖北省,武汉市,汉阳区
欣隆·一号公馆,商务住宅,住宅区,114.21974,30.521708,湖北省,武汉市,汉阳区
四新中央生活住宿区,商务住宅,住宅区,114.223574,30.521795,湖北省,武汉市,汉阳区
星光国际,商务住宅,住宅区,114.220011,30.524379000000003,湖北省,武汉市,汉阳区
太子水榭,商务住宅,住宅区,114.218484,30.528765,湖北省,武汉市,汉阳区
观澜国际,商务住宅,住宅区,114.221617,30.525251,湖北省,武汉市,汉阳区
绿地·悦澜湾,商务住宅,住宅区,114.216022,30.527094,湖北省,武汉市,汉阳区
里仁楼,商务住宅,住宅区,114.215801,30.53114,湖北省,武汉市,汉阳区
中国铁建·御湖,商务住宅,住宅区,114.210295,30.532293,湖北省,武汉市,汉阳区
招商生态公园1872茂园,商务住宅,住宅区,114.225299,30.532019,湖北省,武汉市,汉阳区
生态公园1872瑞府,商务住宅,住宅区,114.22374,30.531314,湖北省,武汉市,汉阳区
招商生态公园1872尚府,商务住宅,住宅区,114.221905,30.531703,湖北省,武汉市,汉阳区
招商生态公园1872怡府,商务住宅,住宅区,114.219769,30.532915,湖北省,武汉市,汉阳区
招商生态公园1872,商务住宅,住宅区,114.221637,30.533664,湖北省,武汉市,汉阳区
招商生态公园1872御府,商务住宅,住宅区,114.215684,30.534312,湖北省,武汉市,汉阳区
港口社区,商务住宅,住宅区,114.211882,30.535791,湖北省,武汉市,汉阳区
招商生态公园1872沁园,商务住宅,住宅区,114.21691,30.534503,湖北省,武汉市,汉阳区
招商公园1872蔚湖轩,商务住宅,住宅区,114.216256,30.535834,湖北省,武汉市,汉阳区
武汉青悦城,商务住宅,住宅区,114.200237,30.530638,湖北省,武汉市,汉阳区
上坤·云启都会,商务住宅,住宅区,114.200898,30.531711,湖北省,武汉市,汉阳区
汉荣园,商务住宅,住宅区,114.200046,30.532805,湖北省,武汉市,汉阳区
总港西岸小区,商务住宅,住宅区,114.208007,30.532103,湖北省,武汉市,汉阳区
天创产投·芳草雅境,商务住宅,住宅区,114.20798,30.532247,湖北省,武汉市,汉阳区
纽宾凯国际社区·锦城,商务住宅,住宅区,114.20602,30.530665,湖北省,武汉市,汉阳区
住商不动产,商务住宅,住宅区,114.209201,30.531765,湖北省,武汉市,汉阳区
和昌·森林湖,商务住宅,住宅区,114.203815,30.535065,湖北省,武汉市,汉阳区
鲤鱼洲花园,商务住宅,住宅区,114.228297,30.522902,湖北省,武汉市,汉阳区
兴华御水澜湾,商务住宅,住宅区,114.236744,30.527595,湖北省,武汉市,汉阳区
兴华·御水华城,商务住宅,住宅区,114.234397,30.525492,湖北省,武汉市,汉阳区
鲤跃龙门,商务住宅,住宅区,114.232048,30.526466,湖北省,武汉市,汉阳区
鲤跃龙山,商务住宅,住宅区,114.231696,30.525622,湖北省,武汉市,汉阳区
向阳庭院,商务住宅,住宅区,114.243159,30.522612,湖北省,武汉市,汉阳区
新城·春天里,商务住宅,住宅区,114.243124,30.528693,湖北省,武汉市,汉阳区
渔场社区,商务住宅,住宅区,114.244418,30.528407,湖北省,武汉市,汉阳区
美好名流印象,商务住宅,住宅区,114.241156,30.526013,湖北省,武汉市,汉阳区
江博小区,商务住宅,住宅区,114.246755,30.527774,湖北省,武汉市,汉阳区
汉博佳园,商务住宅,住宅区,114.245392,30.525215,湖北省,武汉市,汉阳区
弘阳印月府,商务住宅,住宅区,114.240849,30.525611,湖北省,武汉市,汉阳区
江欣园,商务住宅,住宅区,114.248194,30.529879,湖北省,武汉市,汉阳区
湖畔府邸,商务住宅,住宅区,114.246886,30.532539,湖北省,武汉市,汉阳区
保和墨水湾,商务住宅,住宅区,114.245986,30.532271,湖北省,武汉市,汉阳区
铉龙城,商务住宅,住宅区,114.251901,30.530638,湖北省,武汉市,汉阳区
新城丽景A区,商务住宅,住宅区,114.248492,30.532496,湖北省,武汉市,汉阳区
新城丽景B区,商务住宅,住宅区,114.250634,30.531779,湖北省,武汉市,汉阳区
江腾园D区,商务住宅,住宅区,114.253624,30.531934,湖北省,武汉市,汉阳区
新城丽景,商务住宅,住宅区,114.249656,30.532613,湖北省,武汉市,汉阳区
广电·兰亭都荟,商务住宅,住宅区,114.255511,30.535023,湖北省,武汉市,汉阳区
江腾园,商务住宅,住宅区,114.253791,30.535621000000003,湖北省,武汉市,汉阳区
下马湖社区,商务住宅,住宅区,114.249048,30.535798,湖北省,武汉市,汉阳区
邓甲新城E区,商务住宅,住宅区,114.249967,30.536502,湖北省,武汉市,汉阳区
江腾园2期,商务住宅,住宅区,114.252185,30.535878,湖北省,武汉市,汉阳区
广电·兰亭珑府,商务住宅,住宅区,114.24653,30.534047,湖北省,武汉市,汉阳区
水墨丹青,商务住宅,住宅区,114.246826,30.536553,湖北省,武汉市,汉阳区
江腾园C区,商务住宅,住宅区,114.248673,30.536166,湖北省,武汉市,汉阳区
丽水花园,商务住宅,住宅区,114.244837,30.537851,湖北省,武汉市,汉阳区
鹦鹉园,商务住宅,住宅区,114.243041,30.539855,湖北省,武汉市,汉阳区
开来·东方华庭,商务住宅,住宅区,114.247589,30.545037,湖北省,武汉市,汉阳区
百合园,商务住宅,住宅区,114.247567,30.545172,湖北省,武汉市,汉阳区
世纪宏图不动产,商务住宅,住宅区,114.247986,30.545402,湖北省,武汉市,汉阳区
东方华尔兹,商务住宅,住宅区,114.242452,30.547633,湖北省,武汉市,汉阳区
墨水湖社区,商务住宅,住宅区,114.241002,30.548521,湖北省,武汉市,汉阳区
五里墩住宅楼,商务住宅,住宅区,114.243516,30.549575,湖北省,武汉市,汉阳区
丽湖花园,商务住宅,住宅区,114.247751,30.546136,湖北省,武汉市,汉阳区
医院社区,商务住宅,住宅区,114.244798,30.549151,湖北省,武汉市,汉阳区
丽湖花园一期,商务住宅,住宅区,114.247946,30.545704,湖北省,武汉市,汉阳区
邓甲新城A区,商务住宅,住宅区,114.24696,30.546564,湖北省,武汉市,汉阳区
五红小区,商务住宅,住宅区,114.243145,30.54875,湖北省,武汉市,汉阳区
泓源楼社区,商务住宅,住宅区,114.242337,30.549196,湖北省,武汉市,汉阳区
墨缘楼,商务住宅,住宅区,114.246958,30.551634,湖北省,武汉市,汉阳区
墨香居,商务住宅,住宅区,114.246735,30.550253,湖北省,武汉市,汉阳区
墨香园,商务住宅,住宅区,114.245865,30.550815,湖北省,武汉市,汉阳区
五园里小区,商务住宅,住宅区,114.247471,30.550864,湖北省,武汉市,汉阳区
汉阳水墨雅园,商务住宅,住宅区,114.24644,30.550253,湖北省,武汉市,汉阳区
吉星佳地,商务住宅,住宅区,114.226114,30.54651,湖北省,武汉市,汉阳区
湖畔郡府,商务住宅,住宅区,114.230641,30.547253,湖北省,武汉市,汉阳区
汉桥警苑社区,商务住宅,住宅区,114.229001,30.548561,湖北省,武汉市,汉阳区
钰龙旭辉半岛,商务住宅,住宅区,114.228826,30.546997,湖北省,武汉市,汉阳区
汉桥城中花园C区,商务住宅,住宅区,114.22903,30.549796,湖北省,武汉市,汉阳区
